stop_id,stop_code,stop_name,stop_desc,stop_lat,stop_lon,zone_id,stop_url,location_type,parent_station,stop_timezone,wheelchair_boarding
260007226,,"Loughborough Endowed Schs",,52.766194,-1.199423,,,0,,,0
260007307,,"Gordon Road",,52.780676,-1.19932,,,0,,,0
260007312,,"Thomas Cook Place",,52.780102,-1.198204,,,0,,,0
260007334,,"Gordon Road",,52.78083,-1.199407,,,0,,,0
260007337,,"Aumberry Gap",,52.770387,-1.202563,,,0,,,0
260007342,,"The Coneries",,52.773834,-1.201833,,,0,,,0
260007343,,"The Greyhound",,52.775492,-1.199771,,,0,,,0
260007346,,"The Greyhound",,52.775464,-1.199535,,,0,,,0
260007348,,"Loughborough Station, stand A",,52.7791812,-1.1965369,,,0,,,0
260007423,,"Beacon Bingo",,52.773194,-1.202941,,,0,,,0
260007451,,"Loughborough Station, stand C",,52.777552,-1.196285,,,0,,,0
260007454,,"Loughborough, Baxter Gate BA",,52.772176,-1.205272,,,0,,,0
260007462,,"Loughborough Station, stand D",,52.7799298,-1.1982133,,,0,,,0
260007487,,"Meadow Lane",,52.7811,-1.200899,,,0,,,0
3300RU0002,,"County Hall",,52.93643,-1.13475,,,0,,,0
3300RU0003,,"County Hall",,52.936274,-1.134351,,,0,,,0
3300RU0005,,"Balmoral Avenue",,52.933352,-1.13679,,,0,,,0
3300RU0008,,"Wilford Lane, ROKO",,52.926059,-1.152733,,,0,,,0
3300RU0010,,"Foxfield Way",,52.92733,-1.149331,,,0,,,0
3300RU0014,,"Little Bounds",,52.931707,-1.139233,,,0,,,0
3300RU0015,,"Little Bounds",,52.931807,-1.139365,,,0,,,0
3300RU0016,,"Bruce Drive",,52.930908,-1.141927,,,0,,,0
3300RU0017,,"Bruce Drive",,52.930555,-1.142811,,,0,,,0
3300RU0018,,"Gresham Close",,52.929462,-1.145823,,,0,,,0
3300RU0019,,"Foxfield Way",,52.92756,-1.148836,,,0,,,0
3300RU0020,,"Gresham Close",,52.929469,-1.14557,,,0,,,0
3300RU0318,,"The Old School House",,52.798615,-1.196164,,,0,,,0
3300RU0339,,"E.Leake, Lantern La",,52.8367644,-1.1785213,,,0,,,0
3300RU0342,,"Gypsum Way",,52.859417,-1.201888,,,0,,,0
3300RU0343,,"Ridgeway Plantation",,52.851203,-1.189164,,,0,,,0
3300RU0344,,"Ridgeway Plantation",,52.851286,-1.1894,,,0,,,0
3300RU0345,,"Highthorn Farm",,52.848499,-1.186749,,,0,,,0
3300RU0346,,"Bunny Lane",,52.846817,-1.183959,,,0,,,0
3300RU0347,,"Gypsum Works",,52.843,-1.180675,,,0,,,0
3300RU0349,,"St.Mary's Cres",,52.83951,-1.179093,,,0,,,0
3300RU0351,,"E.Leake, Lantern La",,52.835952,-1.178062,,,0,,,0
3300RU0352,,"Stonebridge Drive",,52.83452,-1.177718,,,0,,,0
3300RU0359,,"St.Mary's Cres",,52.839725,-1.178955,,,0,,,0
3300RU0360,,"Eyres Lane",,52.86226,-1.205,,,0,,,0
3300RU0364,,"Nottingham Road",,52.874464,-1.201701,,,0,,,0
3300RU0365,,"Bidwell Crescent",,52.871087,-1.202135,,,0,,,0
3300RU0366,,"Wallace Street",,52.870162,-1.203637,,,0,,,0
3300RU0367,,"Wallace Street",,52.869662,-1.204136,,,0,,,0
3300RU0368,,"Curzon Street",,52.867075,-1.205744,,,0,,,0
3300RU0370,,"Gotham, Leake Rd (Garage)",,52.864162,-1.205693,,,0,,,0
3300RU0381,,"Gotham, Leake Rd (Garage)",,52.864565,-1.205463,,,0,,,0
3300RU0396,,"School Green",,52.830378,-1.181952,,,0,,,0
3300RU0397,,"School Green",,52.830683,-1.181812,,,0,,,0
3300RU0398,,"Loughboro' Rd, Melton Rd",,52.8144977,-1.1800095,,,0,,,0
3300RU0399,,"Leake Lane",,52.80899,-1.18671,,,0,,,0
3300RU0400,,"Leake Lane",,52.808873,-1.187013,,,0,,,0
3300RU0403,,"Woodgate Road",,52.826947,-1.185044,,,0,,,0
3300RU0407,,"Stonebridge Drive",,52.834044,-1.177786,,,0,,,0
3300RU0408,,"East Leake Shops",,52.83176,-1.17745,,,0,,,0
3300RU0409,,"East Leake Shops",,52.831697,-1.177242,,,0,,,0
3300RU0413,,"Woodgate Road",,52.826821,-1.184987,,,0,,,0
3300RU0415,,"East Leake, Kirk Ley Rd Top",,52.823851,-1.18712,,,0,,,0
3300RU0416,,"East Leake, Kirk Ley Rd Top",,52.824013,-1.187147,,,0,,,0
3300RU0423,,"Stanford on Soar Church",,52.793612,-1.195032,,,0,,,0
3300RU0620,,"Gypsum Works",,52.842956,-1.18081,,,0,,,0
3300RU0699,,"Stanford on Soar Church",,52.793598,-1.195158,,,0,,,0
3300RU0700,,"The Old School House",,52.798696,-1.196237,,,0,,,0
3300RU0705,,"Highthorn Farm",,52.8486155,-1.1867023,,,0,,,0
3300RU0706,,"Bunny Lane",,52.846834,-1.183796,,,0,,,0
3300RU0707,,"Gypsum Way",,52.85937,-1.201622,,,0,,,0
3300RU0708,,"Eyres Lane",,52.862306,-1.205192,,,0,,,0
3300RU0709,,"Curzon Street",,52.8670016,-1.2055519,,,0,,,0
3300RU0710,,"Nottingham Road",,52.874571,-1.201476,,,0,,,0
3300RU0711,,"Melton Road",,52.8145416,-1.1798603,,,0,,,0
3300RU0804,,"East Leake Academy",,52.835125,-1.174114,,,0,,,0
3300RU0918,,"Rempstone Road",,52.820212,-1.178955,,,0,,,0
3300RU0919,,"Rempstone Road",,52.82011,-1.178949,,,0,,,0
3300RU0937,,"Elizabeth Drive",,52.82142,-1.182176,,,0,,,0
3300RU0938,,"Elizabeth Drive",,52.821664,-1.182587,,,0,,,0
3300RU0961,,"Fairham Way, Nottingham Rd",,52.886133,-1.197954,,,0,,,0
3300RU0962,,"Fairham Way, Nottingham Rd",,52.88609,-1.197839,,,0,,,0
3300RU0970,,"Fairham Way",,52.893,-1.194451,,,0,,,0
3300RU0973,,"Fairham Way (North End)",,52.892957,-1.19436,,,0,,,0
3390B2,,"City, Beastmarket Hill B2",,52.9532887,-1.1513823,,,0,,,0
3390B3,,"City, Beastmarket Hill B3",,52.9533617,-1.1515297,,,0,,,0
3390C2,,"Canal St, Broadmarsh C2",,52.94871,-1.149343,,,0,,,0
3390CL01,,"Clifton Lane, Fabis Drive",,52.916071,-1.175604,,,0,,,0
3390CL25,,"Nobel Rd, Fleming Gdns",,52.90278,-1.192061,,,0,,,0
3390CL26,,"Krebs Close",,52.901616,-1.194045,,,0,,,0
3390CL27,,"Todd Close",,52.899992,-1.194447,,,0,,,0
3390CL28,,"Harden Court",,52.8996974,-1.1921984,,,0,,,0
3390CL41,,"Clifton Lane, Fabis Drive",,52.916281,-1.176031,,,0,,,0
3390CL83,,"Clifton Lane, Nottm Trent Uni",,52.911284,-1.181464,,,0,,,0
3390CL84,,"Clifton Green",,52.907972,-1.186136,,,0,,,0
3390CL85,,"Clifton La, Crusader Island",,52.905259,-1.188997,,,0,,,0
3390CL86,,"Clifton Lane, The Dip",,52.9013147,-1.190741,,,0,,,0
3390CL87,,"Clifton Pastures",,52.896839,-1.190849,,,0,,,0
3390CL88,,"The Farm House",,52.895121,-1.1921,,,0,,,0
3390CL89,,"Clifton Pastures",,52.897648,-1.190864,,,0,,,0
3390CL90,,"Clifton Lane, The Dip",,52.9014871,-1.1909757,,,0,,,0
3390CL91,,"Clifton La, Crusader Island",,52.90587,-1.189075,,,0,,,0
3390CL92,,"Clifton Lane, Clifton Green",,52.908189,-1.186281,,,0,,,0
3390CL93,,"Clifton Lane, Nottm Trent Uni",,52.911118,-1.182226,,,0,,,0
3390M2,,"City, Maid Marian Way M2",,52.9522841,-1.15295,,,0,,,0
3390M5,,"City, Maid Marian Way M5",,52.9501066,-1.1514148,,,0,,,0
3390ME01,,"Arkwright Street",,52.9460449,-1.1466276,,,0,,,0
3390ME02,,"Lammas Gardens",,52.9447072,-1.1431269,,,0,,,0
3390ME03,,"Eugene Gardens",,52.9436801,-1.1403196,,,0,,,0
3390ME04,,"Meadows Way, Ryehill St",,52.9406842,-1.140007,,,0,,,0
3390ME05,,"Trent Bridge, Victoria Embknt",,52.9394734,-1.1379179,,,0,,,0
3390ME06,,"Trent Bridge, Victoria Embknt",,52.9393791,-1.1385448,,,0,,,0
3390ME07,,"Ryehill Street",,52.9409288,-1.14027,,,0,,,0
3390ME08,,"Eugene Gardens",,52.9430426,-1.1404364,,,0,,,0
3390ME09,,"Lammas Gardens",,52.9446341,-1.1442147,,,0,,,0
3390S2,,"Nottingham Station S2",,52.947978,-1.1475,,,0,,,0
3390S6,,"Nottingham Station S6",,52.9478592,-1.1476486,,,0,,,0
3390WI06,,"Wilford Green",,52.9255727,-1.1588862,,,0,,,0
3390WI07,,"Clifton Bridge South",,52.9213219,-1.1667478,,,0,,,0
3390WI08,,"Clifton Bridge South",,52.9216546,-1.1667563,,,0,,,0
3390WI09,,"Wilford Green",,52.9258285,-1.1594763,,,0,,,0
3390WI34,,"Harvester PH",,52.925592,-1.161544,,,0,,,0
3390WI35,,"Harvester PH",,52.925799,-1.161629,,,0,,,0
3390WI36,,"Wilford Lane Tram Stop",,52.9256013,-1.1552963,,,0,,,0
3300RU0001,,"Balmoral Avenue",,52.933816,-1.136275,,,0,,,0
3300RU0004,,"County Hall",,52.936425,-1.13431,,,0,,,0
3300RU0022,,"Queensbury Avenue",,52.913915,-1.145233,,,0,,,0
3300RU0030,,"Greythorn Drive Top",,52.911978,-1.144814,,,0,,,0
3300RU0032,,"Queensbury Avenue",,52.913618,-1.145332,,,0,,,0
3300RU0033,,"Laughton Avenue",,52.916134,-1.145119,,,0,,,0
3300RU0034,,"Stowe Avenue",,52.921985,-1.141196,,,0,,,0
3300RU0035,,"Stowe Avenue",,52.921944,-1.141717,,,0,,,0
3300RU0036,,"Burnside Road",,52.922082,-1.138501,,,0,,,0
3300RU0037,,"Burnside Road",,52.922275,-1.137828,,,0,,,0
3300RU0039,,"Greythorn Drive Top",,52.911743,-1.144521,,,0,,,0
3300RU0071,,"Loughborough Rd, ASDA",,52.924219,-1.136882,,,0,,,0
3300RU0073,,"Chaworth Road",,52.925973,-1.138313,,,0,,,0
3300RU0110,,"Victoria Road",,52.931504,-1.137332,,,0,,,0
3300RU0111,,"Victoria Road",,52.930965,-1.137373,,,0,,,0
3300RU0112,,"Chestnut Grove",,52.928703,-1.13782,,,0,,,0
3300RU0113,,"Chestnut Grove",,52.928531,-1.137689,,,0,,,0
3300RU0114,,"Chaworth Road",,52.925954,-1.138068,,,0,,,0
3300RU0150,,"Kirk Lane, Sycamore Close",,52.8917434,-1.1449596,,,0,,,0
3300RU0151,,"Loughboro' Rd, Ashworth Av",,52.897646,-1.141491,,,0,,,0
3300RU0152,,"Ashworth Avenue",,52.896896,-1.141469,,,0,,,0
3300RU0153,,"Flawforth Lane",,52.891456,-1.142572,,,0,,,0
3300RU0154,,"Flawforth Lane",,52.891189,-1.14286,,,0,,,0
3300RU0158,,"Rushcliffe Country Park",,52.8843594,-1.1444955,,,0,,,0
3300RU0160,,"Kirk Lane, Sycamore Close",,52.8916382,-1.1453332,,,0,,,0
3300RU0166,,"Scout Hut",,52.887918,-1.14178,,,0,,,0
3300RU0174,,"Landmere Lane",,52.903036,-1.143949,,,0,,,0
3300RU0176,,"Landmere Lane",,52.903927,-1.144036,,,0,,,0
3300RU0187,,"Walcote Drive",,52.920011,-1.144209,,,0,,,0
3300RU0188,,"Rushcliffe Arena",,52.921894,-1.143503,,,0,,,0
3300RU0189,,"Rushcliffe Arena",,52.921795,-1.14355,,,0,,,0
3300RU0209,,"Walcote Drive",,52.919767,-1.144006,,,0,,,0
3300RU0215,,"Laughton Avenue",,52.916566,-1.14514,,,0,,,0
3300RU0230,,"Loughborough Rd, ASDA",,52.922972,-1.136,,,0,,,0
3300RU0482,,"Oakham Road",,52.908571,-1.144792,,,0,,,0
3300RU0483,,"Oakham Road",,52.909213,-1.145285,,,0,,,0
3300RU0554,,"High Street",,52.891891,-1.149208,,,0,,,0
3300RU0555,,"Cumberland Close",,52.892954,-1.1482951,,,0,,,0
3300RU0556,,"Cumberland Close",,52.892924,-1.147805,,,0,,,0
3300RU0557,,"Rufford Road",,52.894408,-1.145398,,,0,,,0
3300RU0558,,"Rufford Road",,52.894478,-1.145173,,,0,,,0
3300RU0559,,"Upper Canaan",,52.896185,-1.146255,,,0,,,0
3300RU0560,,"Upper Canaan",,52.896427,-1.146131,,,0,,,0
3300RU0561,,"Lower Canaan",,52.8979261,-1.1458934,,,0,,,0
3300RU0563,,"Loughborough Road",,52.8974131,-1.142068,,,0,,,0
3300RU0573,,"Packman Drive",,52.898165,-1.145279,,,0,,,0
3300RU0583,,"Ruddington Church",,52.89242,-1.150327,,,0,,,0
3300RU0585,,"Ruddington Green",,52.89046,-1.150261,,,0,,,0
3300RU0695,,"Scout Hut",,52.887618,-1.14131,,,0,,,0
3300RU0814,,"Mere Way, The Avenue",,52.8858274,-1.1411226,,,0,,,0
3300RU0860,,"Mere Way, The Avenue",,52.88571,-1.1410507,,,0,,,0
3390A1,,"City, Angel Row A1",,52.953699,-1.152233,,,0,,,0
3390C3,,"Canal St, Broadmarsh C3",,52.948745,-1.148932,,,0,,,0
3390E1,,"City, Elite E1",,52.955021,-1.14977,,,0,,,0
3390H1,,"Fletcher Gate H1",,52.9525927,-1.1458289,,,0,,,0
3390H2,,"George Street H2",,52.9538269,-1.1449413,,,0,,,0
3390M1,,"City, Maid Marian Way M1",,52.9529001,-1.1536078,,,0,,,0
3390S5,,"Nottingham Station S5",,52.94776,-1.1476059,,,0,,,0
3390S7,,"Nottingham Station S7",,52.947256,-1.147126,,,0,,,0
3390W3,,"City, Victoria Centre W3",,52.955135,-1.146851,,,0,,,0
3300RU0116,,"Gamston, Morrisons",,52.923859,-1.101635,,,0,,,0
3300RU0126,,Beckside,,52.922935,-1.099866,,,0,,,0
3300RU0127,,"Goose at Gamston",,52.9236542,-1.0995124,,,0,,,0
3300RU0128,,"Borrowdale Close",,52.926649,-1.100878,,,0,,,0
3300RU0129,,"Borrowdale Close",,52.926738,-1.100787,,,0,,,0
3300RU0130,,"Elterwater Drive",,52.927631,-1.104711,,,0,,,0
3300RU0131,,"Kirkstone Drive",,52.929418,-1.106906,,,0,,,0
3300RU0157,,"Kirkstone Drive",,52.929958,-1.106939,,,0,,,0
3300RU0194,,Cartbridge,,52.905841,-1.03709,,,0,,,0
3300RU0217,,Cartbridge,,52.905981,-1.036552,,,0,,,0
3300RU0253,,"Adbolton Lane, opposite terminus",,52.938382,-1.111766,,,0,,,0
3300RU0281,,"East Acres",,52.912102,-1.038661,,,0,,,0
3300RU0282,,"East Acres",,52.912166,-1.038779,,,0,,,0
3300RU0285,,"The Maltings",,52.914688,-0.982194,,,0,,,0
3300RU0287,,"Cropwell Bishop, Church Street",,52.913262,-0.983582,,,0,,,0
3300RU0289,,"Nottingham Road",,52.912704,-0.984635,,,0,,,0
3300RU0299,,"Kinoulton Road",,52.912718,-0.990509,,,0,,,0
3300RU0317,,"Cotgrave, White Furrows",,52.908313,-1.041541,,,0,,,0
3300RU0324,,Woodview,,52.905931,-1.034828,,,0,,,0
3300RU0325,,"Little Meadow",,52.907216,-1.034844,,,0,,,0
3300RU0327,,"Cotgrave, White Furrows",,52.90855,-1.041848,,,0,,,0
3300RU0329,,Daleside,,52.906295,-1.03989,,,0,,,0
3300RU0330,,Daleside,,52.90636,-1.040067,,,0,,,0
3300RU0338,,"Cotgrave, Candleby Lane School",,52.9096044,-1.0366497,,,0,,,0
3300RU0350,,"Mensing Avenue",,52.910049,-1.046097,,,0,,,0
3300RU0375,,"Cotgrave Lane End",,52.904096,-1.071906,,,0,,,0
3300RU0376,,"Cotgrave Lane End",,52.903917,-1.071571,,,0,,,0
3300RU0377,,"Cotgrave Road",,52.904297,-1.067753,,,0,,,0
3300RU0378,,"Cotgrave Road",,52.904268,-1.067531,,,0,,,0
3300RU0379,,"Mensing Avenue",,52.909728,-1.046402,,,0,,,0
3300RU0389,,"Tollerton Park",,52.921757,-1.091133,,,0,,,0
3300RU0390,,"Tollerton, Chestnut Mews",,52.911098,-1.08462,,,0,,,0
3300RU0402,,"Nottingham Airport",,52.917231,-1.086022,,,0,,,0
3300RU0473,,"Fox Road",,52.938244,-1.130845,,,0,,,0
3300RU0481,,"Primary School",,52.938394,-1.120708,,,0,,,0
3300RU0495,,"Tollerton, Chestnut Mews",,52.911043,-1.084487,,,0,,,0
3300RU0510,,"Cricket Ground",,52.937646,-1.1338623,,,0,,,0
3300RU0511,,Skylarks,,52.938483,-1.107299,,,0,,,0
3300RU0512,,"Adbolton Lane Terminus",,52.938625,-1.11179,,,0,,,0
3300RU0513,,"Seymour Road",,52.938022,-1.114124,,,0,,,0
3300RU0514,,"Seymour Road",,52.938073,-1.113721,,,0,,,0
3300RU0515,,"Gertrude Road",,52.938136,-1.116235,,,0,,,0
3300RU0516,,"Gertrude Road",,52.938238,-1.116649,,,0,,,0
3300RU0517,,"Primary School",,52.938453,-1.120142,,,0,,,0
3300RU0518,,"Woodland Road",,52.938766,-1.126013,,,0,,,0
3300RU0520,,"Fox Road",,52.937935,-1.13158,,,0,,,0
3300RU0530,,"Woodland Road",,52.938653,-1.125256,,,0,,,0
3300RU0540,,"Greenacres Park",,52.93944,-1.104211,,,0,,,0
3300RU0543,,"National Water Sports Centre",,52.941211,-1.090085,,,0,,,0
3300RU0544,,"National Water Sports Centre",,52.940792,-1.090496,,,0,,,0
3300RU0545,,"Caravan Park",,52.940548,-1.099772,,,0,,,0
3300RU0546,,"Caravan Park",,52.940098,-1.100868,,,0,,,0
3300RU0622,,"Hoe Nook",,52.912789,-0.988202,,,0,,,0
3300RU0623,,"Brownhill Close",,52.914347,-0.988612,,,0,,,0
3300RU0624,,"Parkin Close",,52.916383,-0.988029,,,0,,,0
3300RU0625,,"Hoe View Road",,52.917124,-0.986302,,,0,,,0
3300RU0626,,"Hoe View Road End",,52.916565,-0.983043,,,0,,,0
3300RU0627,,"Cotgrave Lane",,52.907963,-1.076715,,,0,,,0
3300RU0673,,"Stavely Way",,52.930766,-1.10735,,,0,,,0
3300RU0703,,"Cotgrave Lane",,52.907974,-1.076968,,,0,,,0
3300RU0704,,"Tollerton Park",,52.921873,-1.091086,,,0,,,0
3300RU0712,,"Elterwater Drive",,52.927675,-1.104606,,,0,,,0
3300RU0729,,"Kinoulton Road",,52.912573,-0.990319,,,0,,,0
3300RU0757,,"Nottingham Airport",,52.917151,-1.086113,,,0,,,0
3300RU0782,,Skylarks,,52.938577,-1.107789,,,0,,,0
3300RU0796,,"Goose at Gamston",,52.923709,-1.099615,,,0,,,0
3300RU0811,,"Adbolton Lane, outside terminus",,52.938498,-1.111659,,,0,,,0
3300RU0835,,"Cotgrave, Candleby Lane School",,52.909691,-1.036276,,,0,,,0
3300RU0836,,"Little Meadow",,52.907179,-1.034652,,,0,,,0
3300RU0837,,Woodview,,52.905867,-1.03471,,,0,,,0
3300RU0881,,"Welfare Park and Ride",,52.908734,-1.034661,,,0,,,0
3300RU0882,,"Welfare Park and Ride",,52.90855,-1.034764,,,0,,,0
3300RU0891,,"High Hazles Road",,52.914138,-1.033649,,,0,,,0
3300RU0892,,"High Hazles Road",,52.914092,-1.033531,,,0,,,0
3300RU0925,,"Fieldfare Road",,52.92153,-1.031669,,,0,,,0
3300RU0926,,"Hollygate Pk, Fieldfare Road",,52.921314,-1.031614,,,0,,,0
3300RU0927,,"Maygreen Avenue",,52.91983,-1.031513,,,0,,,0
3300RU0928,,"Maygreen Avenue",,52.918896,-1.031638,,,0,,,0
3300RU0929,,"Yew Tree Road",,52.917841,-1.031201,,,0,,,0
3300RU0930,,"Hollygate Pk, Yew Tree Road",,52.917422,-1.02941,,,0,,,0
3390ME20,,"Bridgeway Centre",,52.9432728,-1.1474263,,,0,,,0
3390ME32,,"Bridgeway Centre",,52.9433205,-1.1478123,,,0,,,0
3390ME37,,"Wilford Crescent",,52.940545,-1.1456347,,,0,,,0
3390ME38,,"Holgate Road",,52.9385834,-1.1453757,,,0,,,0
3390ME39,,"Collygate Road",,52.9383101,-1.1436252,,,0,,,0
3390ME41,,"Bathley St, Bunbury St",,52.9386294,-1.1417887,,,0,,,0
3390ME42,,"Collygate Road",,52.9381172,-1.1443135,,,0,,,0
3390ME43,,"Holgate Road",,52.9395832,-1.1456536,,,0,,,0
3390ME44,,"Wilford Crescent",,52.9410588,-1.1458329,,,0,,,0
3390ME71,,"Bathley St, Bunbury St",,52.9387908,-1.141726,,,0,,,0
3390S1,,"Nottingham Station S1",,52.948067,-1.147545,,,0,,,0
3390BU01,,"Bulwell Bus Station stand A",,52.999808,-1.197903,,,0,,,0
3390BU21,,"Merchant Street",,53.0037108,-1.1951609,,,0,,,0
3390BU34,,"Merchant Street",,53.0034062,-1.1953156,,,0,,,0
3390BU35,,"Duke Street",,53.0024561,-1.1970619,,,0,,,0
3390BU44,,"St Albans Rd, Kersall Drive",,52.996008,-1.1808811,,,0,,,0
3390BU54,,"St Albans Rd, Kersall Drive",,52.9960159,-1.180717,,,0,,,0
3390BU55,,Piccadilly,,52.9979985,-1.1827358,,,0,,,0
3390BU56,,"Logan Street",,53.0002602,-1.1848091,,,0,,,0
3390BU57,,"Cantrell Road",,53.0020966,-1.1864882,,,0,,,0
3390BU58,,"Bancroft Street",,53.0038489,-1.1877071,,,0,,,0
3390BU59,,"Bestwood Road",,53.0050788,-1.1900983,,,0,,,0
3390BU60,,"Carey Road",,53.0052611,-1.1931053,,,0,,,0
3390BU61,,"Carey Road",,53.0053653,-1.1925668,,,0,,,0
3390BU62,,"Bestwood Road",,53.0049926,-1.1893249,,,0,,,0
3390BU63,,"Bancroft Street",,53.0032516,-1.1871222,,,0,,,0
3390BU64,,"Cantrell Road",,53.0019867,-1.1861922,,,0,,,0
3390BU65,,"Logan Street",,52.9993542,-1.1837831,,,0,,,0
3390BU66,,Piccadilly,,52.9978795,-1.1824251,,,0,,,0
3390BUT1,,"Duke Street",,53.0025297,-1.1973139,,,0,,,0
3390BW18,,"Riber Crescent",,52.9925887,-1.1739136,,,0,,,0
3390BW19,,"Gorse Court",,52.9947667,-1.1781631,,,0,,,0
3390BW20,,"Gorse Court",,52.9940457,-1.1765975,,,0,,,0
3390BW21,,"Riber Crescent",,52.9924681,-1.1733796,,,0,,,0
3390FO06,,"Mansfield Rd, Redcliffe Rd",,52.9687399,-1.1535962,,,0,,,0
3390FO07,,"Forest Recreation Ground",,52.9663827,-1.1533295,,,0,,,0
3390FO08,,"Forest Road",,52.9642351,-1.1521953,,,0,,,0
3390FO09,,"Huntingdon Street",,52.9623664,-1.1511003,,,0,,,0
3390FO10,,"Woodborough Road",,52.9601727,-1.1498183,,,0,,,0
3390FO11,,"Woodborough Road",,52.9600935,-1.150058,,,0,,,0
3390FO12,,"Huntingdon Street",,52.9629096,-1.1516405,,,0,,,0
3390FO15,,"Forest Recreation Ground",,52.9669342,-1.1537654,,,0,,,0
3390FO31,,"Mansfield Rd, Redcliffe Rd",,52.969015,-1.15394,,,0,,,0
3390G3,,"City, S Sherwood St G3",,52.9565588,-1.1510801,,,0,,,0
3390J1,,"City, Victoria Centre J1",,52.9576836,-1.1487059,,,0,,,0
3390SH41,,"Mansfield Road",,52.9716739,-1.15406,,,0,,,0
3390SH42,,"Ebury Road",,52.9733886,-1.1549945,,,0,,,0
3390SH43,,"Bernard Street",,52.9761127,-1.1562967,,,0,,,0
3390SH44,,"Teesdale Road",,52.9782385,-1.1568957,,,0,,,0
3390SH45,,"Leonard Avenue",,52.9802111,-1.1574382,,,0,,,0
3390SH46,,"Perry Road",,52.9828952,-1.1581605,,,0,,,0
3390SH47,,"Valley Road",,52.9862666,-1.1594654,,,0,,,0
3390SH48,,"Hucknall Rd, City Hospital",,52.98832,-1.160803,,,0,,,0
3390SH49,,"Heathfield Road",,52.9898568,-1.1663232,,,0,,,0
3390SH50,,"Arnold Road",,52.9907062,-1.1695248,,,0,,,0
3390SH51,,"Arnold Road",,52.990913,-1.1695209,,,0,,,0
3390SH52,,"Heathfield Road",,52.989703,-1.1649109,,,0,,,0
3390SH53,,"Hucknall Rd, City Hospital",,52.9885887,-1.1611336,,,0,,,0
3390SH55,,"Valley Road",,52.986382,-1.1592696,,,0,,,0
3390SH56,,"Perry Road",,52.9826685,-1.1578819,,,0,,,0
3390SH57,,"Leonard Avenue",,52.9813982,-1.1575045,,,0,,,0
3390SH58,,"Teesdale Road",,52.978543,-1.1567259,,,0,,,0
3390SH59,,"Bernard Street",,52.9755256,-1.155906,,,0,,,0
3390SH60,,"Ebury Road",,52.9735855,-1.1548716,,,0,,,0
3390SH61,,"Mansfield Road",,52.9714741,-1.153781,,,0,,,0
3390T1,,"City, Victoria Centre T1",,52.9560365,-1.1484406,,,0,,,0
3300GE0040,,"Marwood Road",,52.975563,-1.105642,,,0,,,0
3300GE0042,,"Carlton Square",,52.967168,-1.086905,,,0,,,0
3300GE0043,,"Belper Avenue",,52.97212,-1.097061,,,0,,,0
3300GE0044,,"Belper Avenue",,52.971789,-1.096427,,,0,,,0
3300GE0045,,"Alpine Crescent",,52.970089,-1.093872,,,0,,,0
3300GE0046,,"Alpine Crescent",,52.970063,-1.094021,,,0,,,0
3300GE0047,,Cemetery,,52.968951,-1.092005,,,0,,,0
3300GE0048,,Cemetery,,52.968811,-1.091367,,,0,,,0
3300GE0049,,"Carlton Square",,52.967779,-1.08926,,,0,,,0
3300GE0051,,"Carlton Square",,52.967347,-1.086886,,,0,,,0
3300GE0053,,"Manor Green Walk",,52.968046,-1.083711,,,0,,,0
3300GE0054,,"Manor Green Walk",,52.968276,-1.082548,,,0,,,0
3300GE0055,,"Manor Crescent",,52.968982,-1.079764,,,0,,,0
3300GE0056,,"Manor Crescent",,52.968979,-1.079332,,,0,,,0
3300GE0057,,"Burton Road, Ousebridge Drive",,52.970136,-1.077878,,,0,,,0
3300GE0058,,"Burton Road, Ousebridge Drive",,52.970169,-1.077505,,,0,,,0
3300GE0059,,"Burton Close",,52.971029,-1.075908,,,0,,,0
3300GE0060,,"Carlton Square",,52.967294,-1.088258,,,0,,,0
3300GE0062,,"Marwood Road",,52.975464,-1.105689,,,0,,,0
3300GE0063,,"Huckerby's Field",,52.974464,-1.103043,,,0,,,0
3300GE0069,,"Coningswath Rd Bottom",,52.9732,-1.098751,,,0,,,0
3300GE0071,,"Coningswath Rd Bottom",,52.973572,-1.099115,,,0,,,0
3300GE0078,,"Huckerby's Field",,52.974384,-1.103105,,,0,,,0
3300GE0079,,"Burton Close",,52.970965,-1.075701,,,0,,,0
3300GE0105,,"Florence Road",,52.972052,-1.071031,,,0,,,0
3300GE0110,,"Chesterfield Street",,52.966358,-1.095037,,,0,,,0
3300GE0111,,"Chesterfield Street",,52.966468,-1.094096,,,0,,,0
3300GE0112,,"Southcliffe Road",,52.966275,-1.092388,,,0,,,0
3300GE0113,,"Carlton, Tesco",,52.966329,-1.09127,,,0,,,0
3300GE0114,,Tesco,,52.966202,-1.091094,,,0,,,0
3300GE0183,,"Florence Road",,52.972491,-1.070829,,,0,,,0
3300GE0190,,"Bakewell Avenue",,52.975024,-1.090373,,,0,,,0
3300GE0191,,"Westdale La E, Ramsdale Rd",,52.973908,-1.087805,,,0,,,0
3300GE0192,,"Westdale La E, Ramsdale Rd",,52.973795,-1.087212,,,0,,,0
3300GE0193,,"Victoria Street",,52.972419,-1.083607,,,0,,,0
3300GE0194,,"Westdale La, Digby Av",,52.979633,-1.100598,,,0,,,0
3300GE0195,,"Lascelles Avenue",,52.97856,-1.096629,,,0,,,0
3300GE0196,,"Hartington Avenue",,52.976673,-1.093168,,,0,,,0
3300GE0197,,"Hartington Avenue",,52.976525,-1.09271,,,0,,,0
3300GE0201,,"Westdale La, Digby Av",,52.979581,-1.100927,,,0,,,0
3300GE0202,,"Victoria Street",,52.972392,-1.083003,,,0,,,0
3300GE0203,,"Redland Grove",,52.969206,-1.081903,,,0,,,0
3300GE0204,,"Redland Grove",,52.969306,-1.082035,,,0,,,0
3300GE0205,,"Gedling Rd, Westdale La E",,52.971553,-1.082092,,,0,,,0
3300GE0212,,"Bakewell Avenue",,52.975232,-1.090532,,,0,,,0
3300GE0227,,"Burton Road, Linden Grove",,52.975175,-1.065782,,,0,,,0
3300GE0228,,"Burton Road, Linden Grove",,52.975582,-1.064909,,,0,,,0
3300GE0246,,"Hooton Road",,52.966471,-1.104043,,,0,,,0
3300GE0247,,"Buntings Lane",,52.966422,-1.102257,,,0,,,0
3300GE0248,,"Buntings Lane",,52.96632,-1.101961,,,0,,,0
3300GE0249,,"Forester Grove",,52.966446,-1.099517,,,0,,,0
3300GE0264,,"Forester Grove",,52.966334,-1.098998,,,0,,,0
3300GE0265,,"Hooton Road",,52.966248,-1.105551,,,0,,,0
3300GE0273,,"Brentcliffe Avenue",,52.965211,-1.11461,,,0,,,0
3300GE0274,,"Carlton Hill, Standhill Rd",,52.965693,-1.111846,,,0,,,0
3300GE0275,,"Carlton Hill, Standhill Rd",,52.965925,-1.110367,,,0,,,0
3300GE0277,,"Second Avenue",,52.966217,-1.107339,,,0,,,0
3300GE0278,,"Lascelles Avenue",,52.97878,-1.097235,,,0,,,0
3300GE0290,,"Second Avenue",,52.96605,-1.107848,,,0,,,0
3300GE0344,,"Arnold, Front Street stand 7",,53.005867,-1.127023,,,0,,,0
3300GE0346,,"Arnold, High Street, ASDA",,53.005588,-1.128664,,,0,,,0
3300GE0347,,"High Street Avenue",,53.0028071,-1.1294143,,,0,,,0
3300GE0348,,"Charles Street",,53.000753,-1.131303,,,0,,,0
3300GE0349,,"Nottingham Rd, Sainsbury's",,52.999472,-1.133058,,,0,,,0
3300GE0350,,"Portland Street",,52.997437,-1.135155,,,0,,,0
3300GE0351,,"Daybrook Square",,52.995712,-1.137782,,,0,,,0
3300GE0365,,"Daybrook Square",,52.996705,-1.137195,,,0,,,0
3300GE0366,,"Portland Street",,52.998018,-1.134696,,,0,,,0
3300GE0367,,"Nottingham Rd, Sainsbury's",,52.999473,-1.133251,,,0,,,0
3300GE0368,,"Arnold, Croft Rd",,53.003943,-1.128661,,,0,,,0
3300GE0426,,"High Street Avenue",,53.0023427,-1.129826,,,0,,,0
3300GE0518,,"Kent Road",,52.983914,-1.114064,,,0,,,0
3300GE0519,,"Kenrick Road",,52.983138,-1.111295,,,0,,,0
3300GE0520,,"Fernleigh Avenue",,52.981861,-1.107508,,,0,,,0
3300GE0521,,"Elmhurst Avenue",,52.98077,-1.1047,,,0,,,0
3300GE0522,,"Elmhurst Avenue",,52.980259,-1.103757,,,0,,,0
3300GE0523,,"Fernleigh Avenue",,52.98223,-1.108766,,,0,,,0
3300GE0524,,"Kenrick Road",,52.983252,-1.112097,,,0,,,0
3300GE0525,,"Kent Road",,52.984129,-1.115192,,,0,,,0
3300GE0550,,"Mapperley Shops",,52.984481,-1.121411,,,0,,,0
3300GE0551,,"Mapperley Shops",,52.984443,-1.121084,,,0,,,0
3300GE0573,,Morrisons,,52.960628,-1.066765,,,0,,,0
3300GE0575,,"Victoria Pk, Morrisons",,52.960522,-1.067006,,,0,,,0
3300GE0594,,"Breck Hill Top",,52.984229,-1.122534,,,0,,,0
3300GE0595,,"Coronation Road",,52.98564,-1.124411,,,0,,,0
3300GE0596,,"Maitland Road",,52.987516,-1.126966,,,0,,,0
3300GE0597,,"Littlegreen Road",,52.988609,-1.128895,,,0,,,0
3300GE0598,,"The Crescent",,52.99013,-1.131666,,,0,,,0
3300GE0599,,"Calstock Road",,52.992282,-1.134587,,,0,,,0
3300GE0600,,"Thackeray's La, Knighton Rd",,52.993152,-1.137967,,,0,,,0
3300GE0601,,"Thackeray's La, Knighton Rd",,52.993213,-1.137787,,,0,,,0
3300GE0602,,"Calstock Road",,52.99274,-1.136105,,,0,,,0
3300GE0603,,"Raibank Gardens",,52.991634,-1.133215,,,0,,,0
3300GE0604,,"The Crescent",,52.989874,-1.131,,,0,,,0
3300GE0605,,"Littlegreen Road",,52.988571,-1.128613,,,0,,,0
3300GE0606,,"Maitland Road",,52.9875411,-1.126757,,,0,,,0
3300GE0607,,"Breck Hill Top",,52.98421,-1.122385,,,0,,,0
3300GE0617,,"Raibank Gardens",,52.991868,-1.133329,,,0,,,0
3300GE0758,,"Carlton, Elmhurst Avenue",,52.977524,-1.107017,,,0,,,0
3300GE0787,,"Beaumaris Drive",,52.974464,-1.067897,,,0,,,0
3300GE0800,,"Mansfield Rd, The Vale",,52.994048,-1.138939,,,0,,,0
3300GE0856,,"Rivendell Academy",,52.966097,-1.062994,,,0,,,0
3300GE0865,,"Rivendell Academy",,52.9659469,-1.0614991,,,0,,,0
3300GE0866,,"Cherry Blossom Road",,52.9653875,-1.0585965,,,0,,,0
3300GE0867,,"Rivendell, Cherry Blossom Rd",,52.965271,-1.057488,,,0,,,0
3390CA10,,"Brentcliffe Avenue",,52.9647312,-1.1154243,,,0,,,0
3390CA11,,"Comery Avenue",,52.9631717,-1.1184785,,,0,,,0
3390CA12,,"Porchester Road",,52.9626408,-1.1196208,,,0,,,0
3390CA13,,"Comery Avenue",,52.9638659,-1.1175264,,,0,,,0
3390H3,,Pryzm,,52.9552123,-1.1438273,,,0,,,0
3390H6,,"Lwr Parliament St, Boston St",,52.9543864,-1.1402561,,,0,,,0
3390H7,,Hockley,,52.9536508,-1.1404642,,,0,,,0
3390K1,,"City, King Street K1",,52.954821,-1.149417,,,0,,,0
3390K2,,"City, King Street K2",,52.954623,-1.149421,,,0,,,0
3390SN01,,"Porchester Road",,52.9618291,-1.1204859,,,0,,,0
3390SN02,,"Alma Road",,52.9594017,-1.1241081,,,0,,,0
3390SN03,,"Randolph Street",,52.9575921,-1.1286405,,,0,,,0
3390SN04,,"Carlton Rd, St. Matthias Rd",,52.9568597,-1.130516,,,0,,,0
3390SN05,,"St Chads Road",,52.9559505,-1.1328118,,,0,,,0
3390SN06,,"Handel Street",,52.9552089,-1.1346725,,,0,,,0
3390SN07,,"Handel Street",,52.9555825,-1.1341292,,,0,,,0
3390SN08,,"Carlton Rd, St. Matthias Rd",,52.956933,-1.1307081,,,0,,,0
3390SN09,,"Randolph Street",,52.9580358,-1.1278575,,,0,,,0
3390SN10,,"Alma Road",,52.9588555,-1.1256228,,,0,,,0
3390SN11,,"Marmion Road",,52.9612356,-1.1216741,,,0,,,0
3390SN60,,"Southwell Road",,52.953282,-1.137956,,,0,,,0
3390SN61,,"Southwell Road",,52.9534528,-1.1379526,,,0,,,0
3390V3,,"City, Victoria Centre V3",,52.955329,-1.146326,,,0,,,0
3390V4,,"City, Victoria Centre V4",,52.955325,-1.14579,,,0,,,0
3390V5,,"City, Victoria Centre V5",,52.9552224,-1.1452263,,,0,,,0
3390AS01,,"Bells Lane, Walbrook Close",,52.985413,-1.2039472,,,0,,,0
3390AS02,,"Harpenden Square",,52.9840977,-1.2048651,,,0,,,0
3390AS03,,"Dulverton Vale",,52.9828806,-1.2056918,,,0,,,0
3390AS04,,"Eltham Drive",,52.9808639,-1.2065778,,,0,,,0
3390AS05,,"Eltham Drive",,52.9812238,-1.2066308,,,0,,,0
3390AS06,,"Dulverton Vale",,52.9834636,-1.2054875,,,0,,,0
3390AS07,,"Bells Lane, Walbrook Close",,52.985459,-1.2040953,,,0,,,0
3390AS08,,"Exbourne Road",,52.9734523,-1.2127299,,,0,,,0
3390AS09,,"Ambleside Road",,52.9727997,-1.2078573,,,0,,,0
3390AS10,,"Grannis Drive",,52.9723254,-1.2054982,,,0,,,0
3390AS11,,"Aylestone Drive",,52.9720348,-1.2023763,,,0,,,0
3390AS12,,"Aspley La, Melbourne Rd",,52.9713357,-1.1986663,,,0,,,0
3390AS13,,"St Margarets Church",,52.9691852,-1.1943878,,,0,,,0
3390AS14,,"Aspley La, Bluecoat Sch",,52.968123,-1.191608,,,0,,,0
3390AS15,,"Fitness Centre",,52.9673575,-1.1886891,,,0,,,0
3390AS16,,"Ascot Road",,52.9674635,-1.1844733,,,0,,,0
3390AS17,,"Ascot Road",,52.9672967,-1.1850571,,,0,,,0
3390AS18,,"Fitness Centre",,52.9673066,-1.1891368,,,0,,,0
3390AS19,,"Aspley La, Bluecoat Sch",,52.9681822,-1.1923069,,,0,,,0
3390AS20,,"St Margarets Church",,52.9692872,-1.1948475,,,0,,,0
3390AS21,,"Aspley La, Melbourne Rd",,52.9714117,-1.1992754,,,0,,,0
3390AS22,,"Aylestone Drive",,52.9719657,-1.2027945,,,0,,,0
3390AS23,,"Grannis Drive",,52.9721693,-1.2050096,,,0,,,0
3390AS24,,"Ambleside Road",,52.9726644,-1.2078002,,,0,,,0
3390AS25,,"Exbourne Road",,52.9735505,-1.2139791,,,0,,,0
3390ASMA,,"Nottingham Girls Academy",,52.9675361,-1.2004638,,,0,,,0
3390BETR,,"Beechdale Rd, Trinity Sch",,52.9686687,-1.2098537,,,0,,,0
3390BR01,,"Coleby Rd Bottom",,52.9785664,-1.2098667,,,0,,,0
3390BR02,,"Coleby Rd, Beckley Rd",,52.9784668,-1.2124601,,,0,,,0
3390BR03,,"Coleby Road Top",,52.9783093,-1.2158438,,,0,,,0
3390BR07,,"Denton Green",,52.9780691,-1.2175907,,,0,,,0
3390BR08,,"Coleby Road Top",,52.9784415,-1.2154393,,,0,,,0
3390BR09,,"Coleby Rd, Beckley Rd",,52.9785397,-1.2126077,,,0,,,0
3390BR10,,"Coleby Rd Bottom",,52.9786954,-1.2089856,,,0,,,0
3390BR11,,"Westleigh Road",,52.9779901,-1.2247411,,,0,,,0
3390BR12,,"Frinton Road",,52.978176,-1.2215505,,,0,,,0
3390BR13,,"Denton Green",,52.9783168,-1.2183458,,,0,,,0
3390BR14,,"Frinton Road",,52.978069,-1.2216716,,,0,,,0
3390BR15,,"Westleigh Road",,52.9776636,-1.2256703,,,0,,,0
3390C4,,"Canal St, Broadmarsh C4",,52.948771,-1.14868,,,0,,,0
3390CC08,,"Alfreton Rd, Canning Circus",,52.9568459,-1.1636684,,,0,,,0
3390CC11,,"Alfreton Rd, Canning Circus",,52.9566796,-1.1630314,,,0,,,0
3390M4,,"City, Maid Marian Way M4",,52.9511619,-1.1519002,,,0,,,0
3390RA19,,"Peveril Street",,52.9601739,-1.169053,,,0,,,0
3390RA20,,"Alfreton Rd, Bentinck Rd",,52.961241,-1.1699556,,,0,,,0
3390RA21,,"Peveril Street",,52.9601086,-1.1687118,,,0,,,0
3390RA22,,"Boden Street",,52.9587389,-1.1669665,,,0,,,0
3390RA23,,"Newdigate Street",,52.957838,-1.1654058,,,0,,,0
3390RA24,,"Chadwick Road",,52.9649459,-1.1804857,,,0,,,0
3390RA25,,"Alfreton Rd, Gregory Blvd",,52.9643586,-1.1787548,,,0,,,0
3390RA26,,"Bridlington Street",,52.963639,-1.1761033,,,0,,,0
3390RA27,,"Player Street",,52.9628124,-1.1735731,,,0,,,0
3390RA28,,"Hartley Road",,52.9619164,-1.1714166,,,0,,,0
3390RA30,,"Player Street",,52.9629427,-1.1742109,,,0,,,0
3390RA32,,"Chadwick Road",,52.9653479,-1.181431,,,0,,,0
3390RA33,,"Boden Street",,52.9582322,-1.1664999,,,0,,,0
3390RA47,,"Alfreton Rd, Gregory Blvd",,52.9642247,-1.1788913,,,0,,,0
3390RA49,,"Hartley Road",,52.9619374,-1.1718479,,,0,,,0
3390ST01,,"Strelley Road, ASDA",,52.9737187,-1.2190394,,,0,,,0
3390ST02,,"Helston Drive",,52.9736066,-1.2225112,,,0,,,0
3390ST06,,"Helston Drive",,52.9737634,-1.2217489,,,0,,,0
3390ST07,,"Strelley Road, ASDA",,52.9739106,-1.2181573,,,0,,,0
3390ST08,,"Moor Road, The Rose",,52.9733948,-1.2272507,,,0,,,0
3390ST09,,"Morris Road",,52.9751353,-1.2294833,,,0,,,0
3390ST10,,"Strelley, Flamsteed Rd",,52.976398,-1.228746,,,0,,,0
3390ST11,,"Strelley, Flamsteed Rd",,52.9762185,-1.228779,,,0,,,0
3390ST12,,"Morris Road",,52.9753696,-1.2295685,,,0,,,0
3390ST13,,"Moor Road, The Rose",,52.9733827,-1.2267744,,,0,,,0
3390U3,,"City, Upper Parliament St U3",,52.954529,-1.153799,,,0,,,0
3390W2,,"City, Victoria Centre W2",,52.955185,-1.146254,,,0,,,0
3390Y2,,Cathedral,,52.9549781,-1.1576012,,,0,,,0
3390Y5,,"Wollaton Street",,52.9557182,-1.1580185,,,0,,,0
3390Y7,,"Tollhouse Hill",,52.9548658,-1.1557129,,,0,,,0
3390BE01,,"Beechdale Rd, Beechdale Baths",,52.9610161,-1.1921129,,,0,,,0
3390BE02,,"Redbourne Drive",,52.9611777,-1.1960701,,,0,,,0
3390BE03,,"Enthorpe Street",,52.9612698,-1.1990609,,,0,,,0
3390BE04,,"Enthorpe Street",,52.9614332,-1.199296,,,0,,,0
3390BE05,,"Redbourne Drive",,52.9612858,-1.1947729,,,0,,,0
3390BE06,,"Beechdale Baths",,52.9611882,-1.1923033,,,0,,,0
3390BI01,,"Felstead Road",,52.961447,-1.2040153,,,0,,,0
3390BI02,,"Hollington Rd, Bathurst Dr",,52.961557,-1.2070355,,,0,,,0
3390BI03,,"Greetwell Close",,52.9629678,-1.2123547,,,0,,,0
3390BI04,,"Glaisdale Drive",,52.964365,-1.21562,,,0,,,0
3390BI05,,"Graylands Road",,52.965251,-1.2191324,,,0,,,0
3390BI06,,"Bracebridge Drive End",,52.9664062,-1.2239358,,,0,,,0
3390BI07,,"Darnhall Crescent",,52.9651337,-1.2273236,,,0,,,0
3390BI08,,"Bracebridge Drive Shops",,52.9644089,-1.2292274,,,0,,,0
3390BI09,,"Burnside Green",,52.9633121,-1.2320013,,,0,,,0
3390BI10,,"Tremayne Road",,52.9610999,-1.2360602,,,0,,,0
3390BI11,,"Westwick Road",,52.9595204,-1.2378894,,,0,,,0
3390BI12,,"Brindley Road",,52.9581848,-1.2398928,,,0,,,0
3390BI13,,"Stotfield Road",,52.9588245,-1.2415192,,,0,,,0
3390BI14,,"Byley Road",,52.9578815,-1.2430839,,,0,,,0
3390BI15,,"Stotfield Road Terminus",,52.9569283,-1.2416268,,,0,,,0
3390BI16,,"Brindley Road",,52.9582929,-1.2399207,,,0,,,0
3390BI17,,"Westwick Road",,52.9596109,-1.2379771,,,0,,,0
3390BI18,,"Tremayne Road",,52.9614129,-1.2358165,,,0,,,0
3390BI19,,"Burnside Green",,52.963096,-1.2333302,,,0,,,0
3390BI20,,"Bracebridge Drive Shops",,52.9647471,-1.2287003,,,0,,,0
3390BI21,,"Darnhall Crescent",,52.9654716,-1.2267518,,,0,,,0
3390BI22,,"Wigman Rd, Bracebridge Dr End",,52.9665085,-1.2230853,,,0,,,0
3390BI23,,"Graylands Road",,52.965002,-1.2168142,,,0,,,0
3390BI24,,"Glaisdale Drive",,52.9634861,-1.2132386,,,0,,,0
3390BI25,,"Greetwell Close",,52.9628351,-1.2113149,,,0,,,0
3390BI26,,"Hollington Rd, Bathurst Dr",,52.9616921,-1.2070628,,,0,,,0
3390BI27,,"Felstead Road",,52.9615798,-1.2037151,,,0,,,0
3390BT03,,"Boots, D82 Green Stop C",,52.9279281,-1.187329,,,0,,,0
3390CC06,,"Ilkeston Rd, Canning Circus",,52.955932,-1.1641028,,,0,,,0
3390CC07,,"Ilkeston Rd, Canning Circus",,52.9560159,-1.1632527,,,0,,,0
3390G2,,"City, S Sherwood St G2",,52.9568665,-1.1513569,,,0,,,0
3390J6,,"City, Victoria Centre J6",,52.9555571,-1.1480183,,,0,,,0
3390RA01,,"Highurst Street",,52.9560665,-1.166616,,,0,,,0
3390RA02,,"Albert Grove",,52.9558121,-1.1700893,,,0,,,0
3390RA03,,"Rothesay Avenue",,52.9557281,-1.1722196,,,0,,,0
3390RA04,,"Radford Boulevard",,52.9555677,-1.1763163,,,0,,,0
3390RA05,,"Middleton Street",,52.9553855,-1.1798626,,,0,,,0
3390RA06,,"Faraday Road",,52.9554549,-1.183419,,,0,,,0
3390RA07,,"Jubilee Campus",,52.9552967,-1.1878729,,,0,,,0
3390RA10,,"Triumph Road",,52.9554736,-1.1874528,,,0,,,0
3390RA11,,"Faraday Road",,52.9554665,-1.1811859,,,0,,,0
3390RA12,,"Middleton Street",,52.9556307,-1.1789202,,,0,,,0
3390RA13,,"Radford Boulevard",,52.9558032,-1.1739747,,,0,,,0
3390RA14,,"Albert Grove",,52.9559495,-1.1704588,,,0,,,0
3390RA15,,"Highurst Street",,52.9562001,-1.1677299,,,0,,,0
3390U2,,"City, Upper Parliament St U2",,52.954659,-1.153201,,,0,,,0
3390WO13,,"Rosedale Dr, Wollaton Vale",,52.9520209,-1.2417722,,,0,,,0
3390WO34,,"Western Blvd, The Crown",,52.9563003,-1.1913523,,,0,,,0
3390WO35,,"Western Blvd, The Crown",,52.9560273,-1.1908662,,,0,,,0
3390WO36,,"Wollaton Rd, Jubilee Campus",,52.9553782,-1.1892855,,,0,,,0
3390Y3,,Cathedral,,52.9550702,-1.157912,,,0,,,0
3390Y6,,"Talbot Street",,52.956104,-1.155317,,,0,,,0
3390Y9,,"Clarendon Street",,52.956119,-1.15746,,,0,,,0
3300BR0441,,"Rivergreen Crescent",,52.944781,-1.235619,,,0,,,0
3300BR0442,,"Deddington Lane",,52.944069,-1.239173,,,0,,,0
3300BR0443,,"Eyam Close",,52.945662,-1.242761,,,0,,,0
3300BR0444,,"Eyam Close",,52.946146,-1.242381,,,0,,,0
3300BR0445,,"Rivergreen Crescent",,52.944725,-1.235337,,,0,,,0
3300BR0498,,"Deddington Lane",,52.944138,-1.239187,,,0,,,0
3390J5,,"City, Victoria Centre J5",,52.9557194,-1.1480895,,,0,,,0
3390RA46,,"Radford Boulevard",,52.9555524,-1.1767036,,,0,,,0
3390WO01,,"Wollaton Rd, Ringwood Cres",,52.9548468,-1.1957558,,,0,,,0
3390WO02,,"Eton Grove",,52.9546899,-1.1991378,,,0,,,0
3390WO03,,"Brendon Road",,52.9549998,-1.2064707,,,0,,,0
3390WO04,,"Wollaton Hall",,52.9540742,-1.2119357,,,0,,,0
3390WO05,,"Rectory Gardens",,52.9522912,-1.2169099,,,0,,,0
3390WO06,,"Wollaton, Admiral Rodney",,52.9526638,-1.2216366,,,0,,,0
3390WO07,,Parkside,,52.9503706,-1.2256369,,,0,,,0
3390WO08,,"Bramcote Drive",,52.9492558,-1.2269963,,,0,,,0
3390WO109,,Wharfedale,,52.9493886,-1.2406275,,,0,,,0
3390WO11,,"Grangewood Road",,52.9510128,-1.2387683,,,0,,,0
3390WO14,,"Wollaton Va, Rosedale Dr",,52.9521892,-1.2413822,,,0,,,0
3390WO18,,Parkside,,52.9503366,-1.2259352,,,0,,,0
3390WO19,,"Wollaton, Admiral Rodney",,52.952879,-1.2215434,,,0,,,0
3390WO20,,"Rectory Gardens",,52.9524,-1.2170568,,,0,,,0
3390WO21,,"Wollaton Hall",,52.9542094,-1.2119779,,,0,,,0
3390WO22,,"Old Coach Road",,52.9547801,-1.2099282,,,0,,,0
3390WO23,,"Brendon Road",,52.9551282,-1.2068554,,,0,,,0
3390WO24,,"Eton Grove",,52.9548372,-1.1983163,,,0,,,0
3390WO25,,"Ringwood Crescent",,52.9550322,-1.1952463,,,0,,,0
3390WO37,,"Marchwood Close",,52.9551714,-1.1905993,,,0,,,0
3390WO66,,"Hemlock Stone",,52.9479852,-1.2292961,,,0,,,0
3390WO67,,"Bramcote Lane Shops",,52.9465436,-1.2315839,,,0,,,0
3390WO71,,"Grangewood Road",,52.947758,-1.2414895,,,0,,,0
3390WO71a,,"Grangewood Road",,52.9477028,-1.2413948,,,0,,,0
3390WO72,,"Grangewood Court",,52.9504914,-1.2387626,,,0,,,0
3390WO73,,Wharfedale,,52.9491924,-1.2408691,,,0,,,0
3390WO76,,"Bramcote Lane Shops",,52.9464829,-1.2319273,,,0,,,0
3390WO77,,"Hemlock Stone",,52.9482359,-1.2291429,,,0,,,0
3300BR0467,,"Trowell Road",,52.955805,-1.245993,,,0,,,0
3390A4,,"City, Angel Row A4",,52.9539491,-1.1532151,,,0,,,0
3390BI28,,"Wigman Road Top",,52.9717101,-1.2294698,,,0,,,0
3390BI29,,"Fairnley Road",,52.9698848,-1.2280132,,,0,,,0
3390BI30,,"Chingford Road",,52.9678651,-1.2257114,,,0,,,0
3390BI31,,"Bracebridge Drive End",,52.9667487,-1.2240786,,,0,,,0
3390BI32,,"Chingford Road",,52.9686561,-1.2270821,,,0,,,0
3390BI33,,"Fairnley Road",,52.9698053,-1.228238,,,0,,,0
3390BI34,,"Wigman Road Top",,52.9717754,-1.229826,,,0,,,0
3390BI35,,"Cockington Road",,52.9592393,-1.2431346,,,0,,,0
3390BI36,,"Trowell Road",,52.9569407,-1.244976,,,0,,,0
3390BI38,,"Stotfield Road",,52.9594378,-1.241836,,,0,,,0
3390BR04,,"Whitwell Road",,52.9770511,-1.2172517,,,0,,,0
3390BR05,,"Withern Road",,52.9743031,-1.2176885,,,0,,,0
3390BR06,,"Whitwell Road",,52.9771596,-1.217354,,,0,,,0
3390BU05,,"Bulwell Bus Station stand E",,52.999692,-1.197046,,,0,,,0
3390BU45,,"Sellers Wood Drive",,52.997621,-1.197226,,,0,,,0
3390BU46,,"Coventry Court",,52.9961273,-1.1970452,,,0,,,0
3390BU47,,Glenn's,,52.9940467,-1.1977841,,,0,,,0
3390BU48,,"Leonard Street",,52.9920885,-1.198014,,,0,,,0
3390BU49,,Headstocks,,52.989633,-1.2004878,,,0,,,0
3390BU50,,Headstocks,,52.9902061,-1.2001644,,,0,,,0
3390BU51,,"Leonard Street",,52.9931403,-1.1980243,,,0,,,0
3390BU52,,"Coventry Court",,52.9951431,-1.1977339,,,0,,,0
3390BU53,,"Sellers Wood Drive",,52.997317,-1.197455,,,0,,,0
3390CC04,,"Derby Rd, Canning Circus",,52.9552201,-1.1638635,,,0,,,0
3390CC05,,"Derby Rd, Canning Circus",,52.9553377,-1.1639654,,,0,,,0
3390CI01,,"Cinderhill Rd, Phoenix Pk",,52.9878776,-1.2028144,,,0,,,0
3390E2,,"City, Elite E2",,52.954997,-1.150113,,,0,,,0
3390J3,,"City, Victoria Centre J3",,52.9562241,-1.1482731,,,0,,,0
3390LE01,,"Hillside for Gatehouse Lodge",,52.9471421,-1.1851234,,,0,,,0
3390LE02,,"Triumph Road",,52.9478531,-1.1826245,,,0,,,0
3390LE03,,"Faraday Road",,52.94996,-1.1778815,,,0,,,0
3390LE04,,"Savoy Cinema",,52.9517718,-1.1733966,,,0,,,0
3390LE05,,"Harrington Drive",,52.9530119,-1.1707532,,,0,,,0
3390LE06,,"Seely Road",,52.9545536,-1.1675233,,,0,,,0
3390LE07,,"Seely Road",,52.9544718,-1.1674058,,,0,,,0
3390LE08,,"Harrington Drive",,52.9531345,-1.1702894,,,0,,,0
3390LE09,,"Savoy Cinema",,52.9517497,-1.1728016,,,0,,,0
3390LE10,,"Lenton Boulevard",,52.9507805,-1.1756333,,,0,,,0
3390LE11,,"Faraday Road",,52.9493781,-1.1782348,,,0,,,0
3390LE12,,"Hillside for Gatehouse Lodge",,52.9471952,-1.1836936,,,0,,,0
3390QM02,,"Derby Rd, QMC Main Entrance",,52.9449655,-1.1888998,,,0,,,0
3390QM03,,QMC,,52.9460757,-1.1869294,,,0,,,0
3390QM04,,"Derby Rd, QMC Main Entrance",,52.9450669,-1.1879603,,,0,,,0
3390ST03,,"St Michaels Ave",,52.9728075,-1.2281845,,,0,,,0
3390ST24,,"Moor Road",,52.9732485,-1.226881,,,0,,,0
3390UN06,,"Lace Street",,52.9395856,-1.1830631,,,0,,,0
3390UN07,,"Uni S Entrance",,52.937039,-1.188001,,,0,,,0
3390UN08,,"Tennis Centre",,52.9345538,-1.1939598,,,0,,,0
3390UN10,,"University Boulevard, Broadgate",,52.9331658,-1.2041028,,,0,,,0
3390UN11,,"Derby Road, Charles Avenue",,52.9396372,-1.2120046,,,0,,,0
3390UN14,,"Uni North Entrance",,52.9445179,-1.191825,,,0,,,0
3390UN15,,"Uni North Entrance",,52.9443118,-1.1919182,,,0,,,0
3390UN16,,"Lenton Hall",,52.943327,-1.2004935,,,0,,,0
3390UN17,,"Wollaton Park Gates",,52.941883,-1.2050143,,,0,,,0
3390UN18,,"Charles Avenue",,52.9392218,-1.2130835,,,0,,,0
3390UN24,,"Uni West Gate",,52.9341851,-1.2059588,,,0,,,0
3390UN25,,"Manton Crescent",,52.9351093,-1.2083969,,,0,,,0
3390UN26,,"Woodside Rd, Hathern Green",,52.9357412,-1.2114951,,,0,,,0
3390UN27,,"Derby Road",,52.9378667,-1.2161585,,,0,,,0
3390WO09,,"Arleston Drive",,52.9496521,-1.2312758,,,0,,,0
3390WO10,,"Humberston Road",,52.9500665,-1.2355997,,,0,,,0
3390WO12,,"Wollaton Va, Rosedale Dr",,52.9520549,-1.2414739,,,0,,,0
3390WO15,,"Wollaton Va, Grangewood Rd",,52.9509538,-1.2379805,,,0,,,0
3390WO16,,"Humberston Road",,52.9501264,-1.2351224,,,0,,,0
3390WO17,,"Arleston Drive",,52.949328,-1.229823,,,0,,,0
3390WO38,,"Firbeck Academy",,52.9533558,-1.2438774,,,0,,,0
3390WO39,,"Firbeck Academy",,52.9536629,-1.2441102,,,0,,,0
3390WO40,,"Bramcote Lane",,52.9480018,-1.2277033,,,0,,,0
3390WO41,,"Sheraton Drive",,52.9459107,-1.2254784,,,0,,,0
3390WO42,,"Wollaton Rise",,52.9443216,-1.2244204,,,0,,,0
3390WO43,,"Parkside Rise",,52.9422696,-1.2226862,,,0,,,0
3390WO44,,Parkside,,52.9410789,-1.2193296,,,0,,,0
3390WO45,,"The Priory",,52.9395245,-1.2167237,,,0,,,0
3390WO46,,"Wollaton Vale, The Priory",,52.9395363,-1.2171402,,,0,,,0
3390WO47,,Parkside,,52.9409893,-1.2193759,,,0,,,0
3390WO48,,"Parkside Rise",,52.9424162,-1.2231152,,,0,,,0
3390WO49,,"Wollaton Rise",,52.9447194,-1.2247705,,,0,,,0
3390WO50,,"Sheraton Drive",,52.9466186,-1.2265076,,,0,,,0
3390WO51,,"Bramcote Lane",,52.9480578,-1.2280149,,,0,,,0
3390WO65,,"Coventry Lane",,52.9541553,-1.2452031,,,0,,,0
3390Y4,,Cathedral,,52.9551257,-1.1581342,,,0,,,0
3300BR0026,,"Cator Lane Top",,52.924586,-1.233609,,,0,,,0
3300BR0028,,"Mottram Road",,52.924581,-1.23709,,,0,,,0
3300BR0038,,"Mottram Road",,52.924649,-1.236404,,,0,,,0
3300BR0052,,"Cator Lane Top",,52.924447,-1.233076,,,0,,,0
3300BR0075,,"Cator Lane",,52.9198,-1.227566,,,0,,,0
3300BR0079,,"Cator Lane",,52.91973,-1.226466,,,0,,,0
3300BR0080,,"High Road, Bridge Avenue",,52.921067,-1.223319,,,0,,,0
3300BR0081,,"High Road, Bridge Avenue",,52.921006,-1.223701,,,0,,,0
3300BR0095,,"Collin Street",,52.924252,-1.218249,,,0,,,0
3300BR0096,,"Ellis Grove",,52.923093,-1.219796,,,0,,,0
3300BR0097,,"Wilmot Lane",,52.922398,-1.220737,,,0,,,0
3300BR0154,,"Bramcote La, Hallams Lane",,52.918893,-1.236398,,,0,,,0
3300BR0155,,"Sandby Court",,52.922108,-1.236993,,,0,,,0
3300BR0161,,"Oak Acre",,52.9226778,-1.2501833,,,0,,,0
3300BR0163,,"Gt Hogget Drive",,52.923167,-1.24656,,,0,,,0
3300BR0175,,"Cator La, Greenwood Court",,52.923331,-1.231483,,,0,,,0
3300BR0197,,"Chilwell, Blandford Rd",,52.922492,-1.239298,,,0,,,0
3300BR0198,,"Wentworth Road",,52.923044,-1.242769,,,0,,,0
3300BR0207,,"Valley Road",,52.920092,-1.252117,,,0,,,0
3300BR0208,,"Eskdale Drive",,52.9183394,-1.2521769,,,0,,,0
3300BR0209,,"Caldbeck Court",,52.916721,-1.24923,,,0,,,0
3300BR0210,,"Kirkbride Court",,52.917329,-1.247271,,,0,,,0
3300BR0211,,"Field La, Burton Drive",,52.918136,-1.241361,,,0,,,0
3300BR0213,,"Jessamine Court",,52.925893,-1.212204,,,0,,,0
3300BR0227,,"Field Lane, School Lane",,52.9184593,-1.2371083,,,0,,,0
3300BR0241,,"Resource Centre",,52.927998,-1.208328,,,0,,,0
3300BR0254,,"City Road",,52.927304,-1.21075,,,0,,,0
3300BR0465,,"Hall Drive",,52.92065,-1.236668,,,0,,,0
3300BR0503,,"Greenwood Court",,52.923414,-1.231839,,,0,,,0
3300BR0517,,"Bramcote Avenue",,52.924425,-1.237911,,,0,,,0
3300BR0523,,"Humber Road",,52.929608,-1.209762,,,0,,,0
3300BR0524,,"Salthouse Lane",,52.9318992,-1.2069231,,,0,,,0
3300BR0525,,"Salthouse Lane",,52.9322924,-1.2065737,,,0,,,0
3300BR0526,,"Humber Road",,52.930281,-1.209484,,,0,,,0
3300BR0527,,"Marlborough Road",,52.929424,-1.21107,,,0,,,0
3300BR0613,,"Beeston Interchange bay 1",,52.92499,-1.214333,,,0,,,0
3300BR0616,,"Beeston Interchange bay 4",,52.925838,-1.215401,,,0,,,0
3300BR0626,,"Norman Close",,52.923667,-1.237545,,,0,,,0
3390J4,,"City, Victoria Centre J4",,52.956017,-1.1482177,,,0,,,0
3390UN19,,"Derby Road",,52.938284,-1.215964,,,0,,,0
3390UN20,,"Winster Close",,52.937031,-1.2148493,,,0,,,0
3390UN21,,"Woodside Rd, Hathern Green",,52.9360478,-1.2116383,,,0,,,0
3390UN22,,"Manton Crescent",,52.9352876,-1.2081705,,,0,,,0
3390UN23,,"Uni West Gate",,52.9345554,-1.2062198,,,0,,,0
3390UN31,,"Cut Through La, George Green Liby",,52.9411143,-1.1923349,,,0,,,0
3390UN32,,"Cut Through Lane, Library Rd",,52.9389036,-1.1950991,,,0,,,0
3390UN33,,"West Entrance",,52.9349259,-1.2024785,,,0,,,0
3390UN36,,"Univ Campus, Portland Hill",,52.9394624,-1.1939876,,,0,,,0
3390CL02,,"Orford Avenue",,52.914257,-1.174538,,,0,,,0
3390CL03,,"Farnborough Rd Co-op",,52.912646,-1.171713,,,0,,,0
3390CL04,,"Dovenby Road",,52.910003,-1.171808,,,0,,,0
3390CL05,,Rivergreen,,52.906555,-1.174892,,,0,,,0
3390CL06,,"Sthchurch Dr, Clifton Library",,52.903137,-1.177217,,,0,,,0
3390CL08,,"Southchurch Dr, Peacock",,52.901483,-1.178497,,,0,,,0
3390CL09,,"Dungannon Road",,52.899238,-1.18013,,,0,,,0
3390CL10,,"Southchurch Dr, Holy Trinity",,52.897658,-1.180532,,,0,,,0
3390CL107,,"Swansdowne Drive",,52.905043,-1.175887,,,0,,,0
3390CL11,,"Highbank Drive",,52.896748,-1.182808,,,0,,,0
3390CL12,,"Pastures Avenue",,52.896787,-1.185914,,,0,,,0
3390CL13,,"Bransdale Road",,52.897147,-1.189951,,,0,,,0
3390CL15,,"Todd Close",,52.899784,-1.194302,,,0,,,0
3390CL16,,"Krebs Close",,52.901483,-1.194271,,,0,,,0
3390CL17,,"Nobel Rd, Fleming Gdns",,52.902853,-1.192238,,,0,,,0
3390CL29,,"Bransdale Road",,52.897245,-1.189801,,,0,,,0
3390CL30,,"Pastures Avenue",,52.8968791,-1.1849517,,,0,,,0
3390CL31,,"Southchurch Dr, Holy Trinity",,52.897714,-1.180783,,,0,,,0
3390CL32,,"Dungannon Road",,52.900241,-1.17965,,,0,,,0
3390CL33,,"Sthchurch Dr, Clifton Library",,52.903131,-1.177604,,,0,,,0
3390CL34,,"Clifton Leisure Centre",,52.905537,-1.175848,,,0,,,0
3390CL35,,Rivergreen,,52.907541,-1.174442,,,0,,,0
3390CL36,,"Varney Road",,52.909489,-1.172874,,,0,,,0
3390CL37,,"Dovenby Road",,52.91044,-1.171235,,,0,,,0
3390CL38,,"Southchurch Drive",,52.9118,-1.170482,,,0,,,0
3390CL39,,"Farnborough Rd Co-op",,52.912757,-1.172187,,,0,,,0
3390CL40,,"Orford Avenue",,52.914719,-1.175691,,,0,,,0
3390CL42,,"Nobel Road Turn Round",,52.8996019,-1.1913676,,,0,,,0
3390CL59,,"Varney Road",,52.909238,-1.172938,,,0,,,0
3390CL96,,"Southchurch Dr, Peacock",,52.901636,-1.178613,,,0,,,0
3390LI05,,"Queens Dr, Clifton Br North",,52.9299859,-1.1664326,,,0,,,0
3390LI06,,"Tottle Road",,52.9335006,-1.1612767,,,0,,,0
3390LI07,,"Pork Farms",,52.9353825,-1.1604368,,,0,,,0
3390LI08,,"Queens Dr, Clifton Br North",,52.929575,-1.1668125,,,0,,,0
3390LI19,,"Tottle Road",,52.9336327,-1.1608873,,,0,,,0
3390LI20,,"Pork Farms",,52.9350898,-1.160993,,,0,,,0
3390LI35,,"Electric Av, Experian",,52.9331969,-1.1641094,,,0,,,0
3390LI36,,"B & Q Warehouse",,52.9316679,-1.164005,,,0,,,0
3390LI37,,"Electric Av, Experian",,52.9335464,-1.1639539,,,0,,,0
3390LI42,,"B & Q Warehouse",,52.9319297,-1.1641636,,,0,,,0
3390LI43,,"Riverside Farm Restaurant",,52.9339629,-1.1618183,,,0,,,0
3390ME10,,"Queens Drive, Crossgate Drive",,52.9377896,-1.1601373,,,0,,,0
3390ME21,,"Houseman Gardens",,52.9417412,-1.1494653,,,0,,,0
3390ME22,,"Queens Walk",,52.9417621,-1.1523965,,,0,,,0
3390ME24,,"Robin Hood Way, Soudan Dr",,52.9396725,-1.154357,,,0,,,0
3390ME25,,"Riverside Way",,52.9382253,-1.1569148,,,0,,,0
3390ME26,,"Riverside Way",,52.9383602,-1.156927,,,0,,,0
3390ME27,,"Robin Hood Way, Soudan Dr",,52.9398718,-1.1545763,,,0,,,0
3390ME28,,"Thrumpton Drive",,52.9414012,-1.1547399,,,0,,,0
3390ME29,,"Queens Walk",,52.9418379,-1.1516808,,,0,,,0
3390ME30,,"Houseman Gardens",,52.9418732,-1.1490758,,,0,,,0
3390ME31,,"Manifold Gardens",,52.9420673,-1.1473012,,,0,,,0
3390ME33,,"Crossgate Drive",,52.9381116,-1.1599079,,,0,,,0
3390SI01,,Silverdale,,52.9202769,-1.1664258,,,0,,,0
3390SI02,,Silverdale,,52.9208239,-1.1662368,,,0,,,0
3300GE0343,,"Arnold, Front Street stand 6",,53.005694,-1.127055,,,0,,,0
3300GE0363,,"Killisick, Gleneagles Dr",,53.010065,-1.110369,,,0,,,0
3300GE0364,,"Canonbie Close",,53.009303,-1.108343,,,0,,,0
3300GE0381,,"Cornell Drive",,53.00605,-1.10844,,,0,,,0
3300GE0382,,"Coppice Road",,53.004783,-1.11088,,,0,,,0
3300GE0383,,"Rolleston Dr, Kiddier Ave",,53.002855,-1.114542,,,0,,,0
3300GE0384,,"Rolleston Drive Shops",,53.001609,-1.116817,,,0,,,0
3300GE0385,,"Gedling Rd, Rolleston Dr",,52.999567,-1.121582,,,0,,,0
3300GE0386,,"Arnold View School",,53.000969,-1.123952,,,0,,,0
3300GE0387,,"Friar Tuck",,53.0021842,-1.1265954,,,0,,,0
3300GE0388,,"Arnold Market",,53.001686,-1.128468,,,0,,,0
3300GE0389,,"Arnold Market",,53.001598,-1.128798,,,0,,,0
3300GE0390,,"Friar Tuck",,53.0021673,-1.1255228,,,0,,,0
3300GE0391,,"Arnold View School",,53.00094,-1.123715,,,0,,,0
3300GE0392,,"Eaton Avenue",,52.999827,-1.12025,,,0,,,0
3300GE0393,,"Rolleston Drive Shops",,53.001974,-1.116437,,,0,,,0
3300GE0394,,"Kiddier Avenue",,53.003322,-1.113876,,,0,,,0
3300GE0395,,"Coppice Road",,53.005086,-1.110516,,,0,,,0
3300GE0396,,"Cornell Drive",,53.006415,-1.107985,,,0,,,0
3300GE0397,,"Berriedale Close",,53.007811,-1.105974,,,0,,,0
3300GE0398,,"Canonbie Close",,53.008638,-1.107134,,,0,,,0
3300GE0399,,"Gedling Road Shops",,52.99437,-1.112941,,,0,,,0
3300GE0400,,"Flowers Close",,52.995499,-1.113708,,,0,,,0
3300GE0401,,"Banks Close",,52.995221,-1.111285,,,0,,,0
3300GE0402,,"Trueman Gardens",,52.996736,-1.108423,,,0,,,0
3300GE0403,,"Hunter Road",,52.997828,-1.106233,,,0,,,0
3300GE0404,,"Ramsey Dr, Newcombe Dr",,52.999856,-1.104812,,,0,,,0
3300GE0405,,"Edison Way",,53.001946,-1.104218,,,0,,,0
3300GE0406,,"Mapperley Orchard",,53.00308,-1.107979,,,0,,,0
3300GE0407,,"Hinsley Close",,53.003935,-1.11054,,,0,,,0
3300GE0408,,"Beechwood Road",,53.005987,-1.116846,,,0,,,0
3300GE0409,,"Catton Road",,53.006395,-1.118582,,,0,,,0
3300GE0410,,"Runswick Drive",,53.005854,-1.120709,,,0,,,0
3300GE0411,,"Leivers Avenue",,53.004166,-1.123471,,,0,,,0
3300GE0414,,"Leivers Avenue",,53.004344,-1.123214,,,0,,,0
3300GE0415,,"Runswick Drive",,53.006275,-1.120507,,,0,,,0
3300GE0416,,"Catton Road",,53.006383,-1.11812,,,0,,,0
3300GE0417,,"Beechwood Road",,53.005706,-1.115407,,,0,,,0
3300GE0418,,"Hinsley Close",,53.004098,-1.1107,,,0,,,0
3300GE0419,,"Mapperley Orchard",,53.003326,-1.108436,,,0,,,0
3300GE0420,,"Edison Way",,53.002514,-1.105711,,,0,,,0
3300GE0421,,"Ramsey Dr, Newcombe Dr",,52.999064,-1.104769,,,0,,,0
3300GE0422,,"Hunter Road",,52.997576,-1.106513,,,0,,,0
3300GE0423,,"Trueman Gardens",,52.996433,-1.108697,,,0,,,0
3300GE0424,,"Banks Close",,52.995155,-1.110884,,,0,,,0
3300GE0425,,"Gedling Road Shops",,52.994663,-1.113221,,,0,,,0
3300GE0437,,"Newcombe Drive",,52.999409,-1.105253,,,0,,,0
3300GE0438,,"Newcombe Dr, Darlton Dr",,53.000508,-1.107883,,,0,,,0
3300GE0439,,"Berriedale Close",,53.007792,-1.105751,,,0,,,0
3300GE0440,,"Davidson Drive",,52.999825,-1.106705,,,0,,,0
3300GE0452,,"Saville Road",,52.994549,-1.129938,,,0,,,0
3300GE0453,,"Conway Gardens",,52.996469,-1.130555,,,0,,,0
3300GE0454,,"Carmel Gardens",,52.999108,-1.13001,,,0,,,0
3300GE0455,,"Carmel Gardens",,52.998999,-1.129908,,,0,,,0
3300GE0456,,"Conway Gardens",,52.995847,-1.130403,,,0,,,0
3300GE0459,,"Lynton Gardens",,53.005229,-1.11406,,,0,,,0
3300GE0583,,"Foster Drive",,52.989427,-1.140052,,,0,,,0
3300GE0584,,"Woodthorpe Drive",,52.986994,-1.141754,,,0,,,0
3300GE0608,,"Mansfield Rd, The Vale",,52.993009,-1.139212,,,0,,,0
3300GE0610,,"Somersby Rd, Nordean Rd",,52.991274,-1.119709,,,0,,,0
3300GE0611,,"Weaverthorpe Road",,52.992611,-1.119458,,,0,,,0
3300GE0612,,"Walsingham Road",,52.993064,-1.113877,,,0,,,0
3300GE0613,,"Walsingham Road",,52.993063,-1.113624,,,0,,,0
3300GE0614,,"Weaverthorpe Road",,52.992939,-1.118841,,,0,,,0
3300GE0615,,"Somersby Rd, Melbury Rd",,52.990369,-1.118953,,,0,,,0
3300GE0618,,"Thackerays Lane",,52.992299,-1.131995,,,0,,,0
3300GE0619,,"Saville Road",,52.993143,-1.126986,,,0,,,0
3300GE0620,,"Somersby Road",,52.993486,-1.12464,,,0,,,0
3300GE0621,,"Littlegreen Road",,52.992196,-1.121758,,,0,,,0
3300GE0622,,"Littlegreen Road",,52.992798,-1.122881,,,0,,,0
3300GE0623,,"Saville Road",,52.992793,-1.128245,,,0,,,0
3300GE0624,,"Thackerays Lane",,52.992184,-1.132176,,,0,,,0
3300GE0625,,"Somersby Rd, Nordean Rd",,52.991408,-1.120779,,,0,,,0
3300GE0626,,"Worcester Road",,52.9926336,-1.1322559,,,0,,,0
3300GE0627,,"Saville Road",,52.993607,-1.130091,,,0,,,0
3300GE0628,,"Worcester Road",,52.9924473,-1.1326023,,,0,,,0
3300GE0636,,"The Good Shepherd School",,52.993773,-1.122161,,,0,,,0
3300GE0637,,"The Good Shepherd School",,52.993985,-1.12165,,,0,,,0
3390FO01,,"Woodborough Road",,52.9605899,-1.1503312,,,0,,,0
3390FO02,,"Huntingdon Street",,52.9628103,-1.1515829,,,0,,,0
3390FOT1,,"Mansfield Rd, Redcliffe Rd",,52.96915,-1.153927,,,0,,,0
3390P2,,"City, Parliament St P2",,52.955139,-1.149828,,,0,,,0
3390P3,,"City, Parliament St P3",,52.955146,-1.149589,,,0,,,0
3390SH01,,"Hucknall Road",,52.9719969,-1.1527135,,,0,,,0
3390SH02,,"Tavistock Drive",,52.9732316,-1.1518852,,,0,,,0
3390SH03,,"Church Drive",,52.9757274,-1.1501683,,,0,,,0
3390SH04,,"Bingham Road",,52.9777494,-1.1488031,,,0,,,0
3390SH05,,"Sherwood, Haydn Rd",,52.9806396,-1.1469292,,,0,,,0
3390SH06,,"Sherwood Shops",,52.9826698,-1.1454741,,,0,,,0
3390SH07,,"Magnus Road",,52.9845379,-1.1439774,,,0,,,0
3390SH08,,"Woodthorpe Drive",,52.9877734,-1.1413661,,,0,,,0
3390SH09,,"Foster Drive",,52.9898591,-1.1401329,,,0,,,0
3390SH10,,"Rushcliffe Rise",,52.9907119,-1.139967,,,0,,,0
3390SH13,,"Sherwood Shops",,52.9833473,-1.1446713,,,0,,,0
3390SH14,,"Sherwood, Winchester St",,52.9813533,-1.1461704,,,0,,,0
3390SH15,,"Haydn Road",,52.9796267,-1.1473364,,,0,,,0
3390SH16,,"Bingham Road",,52.9771394,-1.1489938,,,0,,,0
3390SH17,,"Church Drive",,52.9747506,-1.1505896,,,0,,,0
3390SH18,,"Tavistock Drive",,52.9731762,-1.1516778,,,0,,,0
3390SH19,,"Hucknall Road",,52.9714314,-1.1528288,,,0,,,0
3390T6,,"Victoria Ctr, Rose of England T6",,52.9586233,-1.1493723,,,0,,,0
3300GE0342,,"Arnold, Front Street stand 5",,53.005296,-1.127136,,,0,,,0
3300GE0352,,"Brackendale Avenue",,53.007026,-1.127332,,,0,,,0
3300GE0353,,"Mellors Road",,53.00809,-1.127061,,,0,,,0
3300GE0354,,"St Mary's Close",,53.010216,-1.124749,,,0,,,0
3300GE0355,,"Albion Rise",,53.011263,-1.121628,,,0,,,0
3300GE0356,,"Patricia Drive",,53.012924,-1.117748,,,0,,,0
3300GE0357,,"Surgeys Lane",,53.014344,-1.116483,,,0,,,0
3300GE0358,,"Karen Rise",,53.011633,-1.115762,,,0,,,0
3300GE0359,,"Walton Road",,53.009061,-1.118021,,,0,,,0
3300GE0360,,"Ashdale Road",,53.006891,-1.116381,,,0,,,0
3300GE0361,,"Cedar Grove",,53.00666,-1.113107,,,0,,,0
3300GE0362,,Spinningdale,,53.008989,-1.110838,,,0,,,0
3300GE0369,,Spinningdale,,53.008979,-1.110675,,,0,,,0
3300GE0370,,"Cedar Grove",,53.006772,-1.112449,,,0,,,0
3300GE0371,,"Oakdale Road",,53.006417,-1.1142,,,0,,,0
3300GE0372,,"Ashdale Road",,53.00694,-1.116842,,,0,,,0
3300GE0373,,"Walton Road",,53.009506,-1.117386,,,0,,,0
3300GE0374,,"Karen Rise",,53.012063,-1.11553,,,0,,,0
3300GE0375,,"Surgeys Lane",,53.014431,-1.116018,,,0,,,0
3300GE0376,,"Patricia Drive",,53.012549,-1.118069,,,0,,,0
3300GE0377,,"Albion Rise",,53.010599,-1.123027,,,0,,,0
3300GE0378,,"St Mary's Close",,53.009529,-1.125389,,,0,,,0
3300GE0379,,"Mellors Road",,53.007528,-1.127173,,,0,,,0
3300GE0380,,"Church St, Brackendale Ave",,53.006773,-1.127144,,,0,,,0
3300GE0463,,"Homefield Avenue",,53.013521,-1.114561,,,0,,,0
3300GE0770,,"Arnold, Beechwood Road",,53.006159,-1.115512,,,0,,,0
3300GE0855,,"Pond Hills Lane",,53.006903,-1.123692,,,0,,,0
3390CL97,,"NTU Clifton Campus",,52.912799,-1.183488,,,0,,,0
3390G1,,"City, S Sherwood St G1",,52.9564526,-1.1513054,,,0,,,0
3390LI02,,"Clifton Blvd, Clifton Br North",,52.9307472,-1.1698845,,,0,,,0
3390M6,,"City, Maid Marian Way M6",,52.9528031,-1.1538776,,,0,,,0
3390T7,,"City, Cornerhouse T7",,52.9562013,-1.1501046,,,0,,,0
3390U5,,"City, Upper Parliament St U5",,52.954921,-1.152065,,,0,,,0
3390X2,,"City, Mount Street X2",,52.9536113,-1.1537576,,,0,,,0
3300GE0757,,"Arnold, Front Street stand 4",,53.004587,-1.127292,,,0,,,0
3390BA14,,"Hucknall Road",,52.9865823,-1.1608894,,,0,,,0
3390BA15,,"Ventnor Rise",,52.9856295,-1.1647362,,,0,,,0
3390BA16,,"Heatherley Drive",,52.9845751,-1.1694935,,,0,,,0
3390BA17,,"Valley Rd, Futurist",,52.9809885,-1.1734051,,,0,,,0
3390BA18,,"Valley Rd, Futurist",,52.981905,-1.1733429,,,0,,,0
3390BA19,,"Valley Road, Heatherley Drive",,52.9847912,-1.1695489,,,0,,,0
3390BA20,,"Valley Road, Ventnor Rise",,52.9856861,-1.1651224,,,0,,,0
3390BE07,,"Western Blvd, Chalfont Drive",,52.9635956,-1.19071,,,0,,,0
3390BE08,,"Beechdale Road",,52.9622381,-1.1907056,,,0,,,0
3390BE09,,"Western Blvd, Beechdale Rd",,52.9614865,-1.1912258,,,0,,,0
3390BE10,,"Western Blvd, Chalfont Drive",,52.963778,-1.1910937,,,0,,,0
3390BE11,,"Aspley Gardens",,52.9672203,-1.1909848,,,0,,,0
3390BE34,,"Aspley Gardens",,52.9668762,-1.1906189,,,0,,,0
3390CL100,,"The Fairham",,52.900328,-1.170164,,,0,,,0
3390CL101,,"Dungannon Road",,52.901165,-1.172839,,,0,,,0
3390CL102,,"Wheatacre Road",,52.9015897,-1.1758239,,,0,,,0
3390CL103,,"Green Lane, Peacock",,52.901912,-1.176824,,,0,,,0
3390CL104,,"Green Lane, Peacock",,52.901887,-1.177211,,,0,,,0
3390CL105,,"Scafell Way",,52.8939897,-1.1857342,,,0,,,0
3390CL106,,"Summerwood La, Manesty Cres",,52.892912,-1.181855,,,0,,,0
3390CL106a,,"Summerwood La, Manesty Cres",,52.8929923,-1.1818088,,,0,,,0
3390CL113,,"Lark Hill Village",,52.897899,-1.192108,,,0,,,0
3390CL18,,"The Crusader",,52.904951,-1.191307,,,0,,,0
3390CL19,,"Myrtus Close",,52.9055178,-1.1941122,,,0,,,0
3390CL20,,"Lilac Court",,52.904353,-1.196032,,,0,,,0
3390CL21,,"Clifton, Hartness Rd",,52.903323,-1.196586,,,0,,,0
3390CL22,,"Lilac Court",,52.904686,-1.195996,,,0,,,0
3390CL23,,"Myrtus Close",,52.905618,-1.194328,,,0,,,0
3390CL24,,"The Crusader",,52.9052602,-1.1919165,,,0,,,0
3390CL48,,"Farnborough Rd, Dunkery Rd",,52.898039,-1.170698,,,0,,,0
3390CL49,,"Fairham School",,52.8967784,-1.1742799,,,0,,,0
3390CL50,,"Glencoyne Road",,52.896711,-1.1762286,,,0,,,0
3390CL51,,"Farnboro' Rd, Holy Trinity",,52.896999,-1.180054,,,0,,,0
3390CL52,,"Glencoyne Road",,52.8968312,-1.176702,,,0,,,0
3390CL53,,"Fairham School",,52.8971036,-1.1732182,,,0,,,0
3390CL54,,"Dunkery Road",,52.8984951,-1.1703671,,,0,,,0
3390CL60,,Greencroft,,52.913486,-1.174954,,,0,,,0
3390CL60A,,Greencroft,,52.9135308,-1.1748785,,,0,,,0
3390CL61,,"Brinkhill Crescent",,52.9126807,-1.1741857,,,0,,,0
3390CL62,,"Woodbridge Avenue",,52.911911,-1.175891,,,0,,,0
3390CL63,,"Sunninghill Drive",,52.9110638,-1.1769526,,,0,,,0
3390CL64,,"Sunninghill Drive Shops",,52.910401,-1.17986,,,0,,,0
3390CL65,,"Sunninghill Drive",,52.910843,-1.177458,,,0,,,0
3390CL66,,"Sunninghill Drive Shops",,52.9103448,-1.1795835,,,0,,,0
3390CL67,,"Rivergreen Roundabout",,52.909441,-1.1801805,,,0,,,0
3390CL67A,,"Rivergreen Roundabout",,52.9094766,-1.1801005,,,0,,,0
3390CL68,,"Woodsford Grove",,52.908289,-1.177327,,,0,,,0
3390CL77,,"Winscombe Mount",,52.89577,-1.185755,,,0,,,0
3390CL77a,,"Winscombe Mount",,52.8957695,-1.1856511,,,0,,,0
3390CL78,,"Pastures Avenue South",,52.8934374,-1.1851649,,,0,,,0
3390CL78a,,"Pastures Avenue South",,52.8935005,-1.1851288,,,0,,,0
3390CL79,,"Thistledown Road",,52.893175,-1.18353,,,0,,,0
3390CL79a,,"Thistledown Road",,52.8932465,-1.1834836,,,0,,,0
3390CL80,,"Clarewood Grove",,52.892562,-1.179424,,,0,,,0
3390CL80a,,"Clarewood Grove",,52.8926431,-1.1794074,,,0,,,0
3390CL81,,"Breckswood Drive",,52.894067,-1.174713,,,0,,,0
3390CL81a,,"Breckswood Drive",,52.8940948,-1.1748463,,,0,,,0
3390CL82,,"Fairham School",,52.896574,-1.173209,,,0,,,0
3390CL82a,,"Fairham School",,52.8965655,-1.1733426,,,0,,,0
3390CL94,,"Woodsford Grove",,52.9080706,-1.1770094,,,0,,,0
3390CL98,,"Dungannon Road",,52.901272,-1.172792,,,0,,,0
3390CL99,,"The Fairham",,52.9005457,-1.1704915,,,0,,,0
3390LI01,,"Showcase Cinema",,52.9350989,-1.1725538,,,0,,,0
3390LI03,,"Clifton Blvd, Clifton Br North",,52.9301664,-1.1703865,,,0,,,0
3390LI04,,"Showcase Cinema",,52.934127,-1.1724087,,,0,,,0
3390QM01,,"University East Entrance",,52.9409983,-1.1845692,,,0,,,0
3390QM05,,"QMC Derby Road",,52.9437642,-1.1893836,,,0,,,0
3390QM06,,"Medical School",,52.9427912,-1.1877648,,,0,,,0
3390QM07,,Dunkirk,,52.9409514,-1.1829778,,,0,,,0
3390QM08,,"QMC Forecourt (stop QM08)",,52.9448919,-1.1873385,,,0,,,0
3390SH107,,"Five Ways",,52.9893492,-1.1479792,,,0,,,0
3390SH20,,"Valley Rd, Mansfield Rd",,52.9920437,-1.1414006,,,0,,,0
3390SH21,,"Linby Close",,52.9911844,-1.1444122,,,0,,,0
3390SH22,,"Valley Rd, Edwards La",,52.9881429,-1.1502524,,,0,,,0
3390SH23,,"Whatton Rise",,52.9877757,-1.1529708,,,0,,,0
3390SH24,,"Valley Rd, Hucknall Rd",,52.9873937,-1.1561365,,,0,,,0
3390SH25,,"Valley Rd, Hucknall Rd",,52.9873016,-1.1583728,,,0,,,0
3390SH26,,"Whatton Rise",,52.9878615,-1.1536544,,,0,,,0
3390SH27,,"Valley Rd, Edwards La",,52.9882887,-1.1505326,,,0,,,0
3390SH28,,"Linby Close",,52.9913734,-1.1444382,,,0,,,0
3390SH29,,"Valley Rd, Mansfield Rd",,52.9923449,-1.1407838,,,0,,,0
3390SH92,,"Five Ways",,52.9892538,-1.1484726,,,0,,,0
3390UN05,,"Dunkirk, Lace Street",,52.9398187,-1.1829694,,,0,,,0
3390WM01,,"Radford Road",,52.978131,-1.1787767,,,0,,,0
3390WM02,,"Newport Drive",,52.9752872,-1.182241,,,0,,,0
3390WM03,,"Western Blvd, Nuthall Rd",,52.9733612,-1.184541,,,0,,,0
3390WM04,,"Newlyn Drive",,52.970426,-1.1878127,,,0,,,0
3390WM05,,"Western Blvd, Bluecoat Sch",,52.9685514,-1.1897538,,,0,,,0
3390WM06,,"Western Blvd, Bluecoat Sch",,52.9686259,-1.1901395,,,0,,,0
3390WM07,,"Western Blvd, Newlyn Drive",,52.9704199,-1.1882446,,,0,,,0
3390WM08,,"Western Blvd, Nuthall Rd",,52.973374,-1.1851066,,,0,,,0
3390WM09,,"Newport Drive",,52.975861,-1.1820217,,,0,,,0
3390WM10,,"Radford Road",,52.9782947,-1.1790565,,,0,,,0
3390WO26,,"Middleton Blvd, Jubilee Campus",,52.9542587,-1.1925366,,,0,,,0
3390WO27,,"Hawton Crescent",,52.9511812,-1.190778,,,0,,,0
3390WO28,,"Scalford Drive",,52.9490948,-1.1906681,,,0,,,0
3390WO29,,"Wollaton Hall Dr",,52.9470076,-1.1904243,,,0,,,0
3390WO30,,"Oundle Drive",,52.9453037,-1.1910365,,,0,,,0
3390WO31,,"Wollaton Hall Dr",,52.9469485,-1.190991,,,0,,,0
3390WO32,,"Scalford Drive",,52.9500331,-1.1911567,,,0,,,0
3390WO33,,"Jubilee Campus",,52.9543797,-1.1931446,,,0,,,0
3390WO78,,"Middleton Blvd, Hawton Cres",,52.952797,-1.19176,,,0,,,0
3300RU0023,,"The Poplars",,52.930623,-1.127501,,,0,,,0
3300RU0041,,"Highfield Road",,52.92941,-1.131275,,,0,,,0
3300RU0042,,"Highfield Road",,52.929527,-1.131198,,,0,,,0
3300RU0043,,"The Poplars",,52.9303871,-1.1283836,,,0,,,0
3300RU0046,,"Musters Rd, Kingston Rd",,52.924471,-1.132013,,,0,,,0
3300RU0059,,"South Road",,52.926954,-1.132142,,,0,,,0
3300RU0062,,"Boundary Rd, Selby Rd",,52.916628,-1.126578,,,0,,,0
3300RU0078,,"Musters Road",,52.915887,-1.129686,,,0,,,0
3300RU0079,,"Musters Road",,52.915675,-1.1301811,,,0,,,0
3300RU0080,,"Ellesmere Road",,52.916753,-1.131245,,,0,,,0
3300RU0081,,"Ellesmere Road",,52.917066,-1.13112,,,0,,,0
3300RU0082,,"Malvern Road",,52.919675,-1.131395,,,0,,,0
3300RU0083,,"Malvern Road",,52.920027,-1.131581,,,0,,,0
3300RU0084,,"Sherborne Road",,52.921601,-1.131594,,,0,,,0
3300RU0103,,"South Road",,52.926676,-1.132237,,,0,,,0
3300RU0105,,"Musters Rd, Kingston Rd",,52.924174,-1.13187,,,0,,,0
3300RU0106,,"Willow Road",,52.915056,-1.132856,,,0,,,0
3300RU0107,,"Willow Road",,52.915009,-1.132604,,,0,,,0
3300RU0118,,"Compton Acres, Mickleboro' Way",,52.913505,-1.152026,,,0,,,0
3300RU0123,,"Cranford Gardens",,52.915298,-1.151456,,,0,,,0
3300RU0140,,"Mickleborough Way",,52.913601,-1.151653,,,0,,,0
3300RU0148,,"Claremont Drive",,52.912664,-1.152593,,,0,,,0
3300RU0195,,"Syon Park Close",,52.921419,-1.14616,,,0,,,0
3300RU0201,,"Syon Park Close",,52.921371,-1.145744,,,0,,,0
3300RU0219,,"Charlecote Park Drive",,52.917148,-1.152431,,,0,,,0
3300RU0225,,"Parkstone Close",,52.919003,-1.152826,,,0,,,0
3300RU0227,,"Compton Acres Shops",,52.918047,-1.153618,,,0,,,0
3300RU0229,,"Charlecote Park Drive",,52.916992,-1.152003,,,0,,,0
3300RU0231,,"Cranford Gardens",,52.915058,-1.151713,,,0,,,0
3300RU0235,,"Compton Acres Shops",,52.917774,-1.153118,,,0,,,0
3300RU0238,,"Dorset Gardens",,52.92032,-1.149618,,,0,,,0
3300RU0239,,"Dorset Gardens",,52.919989,-1.149847,,,0,,,0
3300RU0240,,"Parkstone Close",,52.919101,-1.15275,,,0,,,0
3300RU0315,,"Europa Way",,52.910699,-1.146966,,,0,,,0
3300RU0467,,"Repton Road",,52.922573,-1.135517,,,0,,,0
3300RU0468,,"Europa Way",,52.910543,-1.146523,,,0,,,0
3300RU0469,,Cloverlands,,52.910545,-1.150493,,,0,,,0
3300RU0470,,"Landmere La, Cloverlands",,52.910411,-1.15057,,,0,,,0
3300RU0471,,"Maythorn Close",,52.911652,-1.151973,,,0,,,0
3300RU0472,,"Maythorn Close",,52.911887,-1.152103,,,0,,,0
3300RU0479,,"Repton Road",,52.922633,-1.135114,,,0,,,0
3300RU0480,,"Sherborne Road",,52.921701,-1.131756,,,0,,,0
3300RU0484,,"Wilford Hill Cemetery",,52.912965,-1.141368,,,0,,,0
3300RU0485,,"Wilford Hill Cemetery",,52.913143,-1.140553,,,0,,,0
3300RU0486,,"Stanholme Drive",,52.913827,-1.138175,,,0,,,0
3300RU0531,,"Central Ave Shops",,52.931703,-1.126349,,,0,,,0
3300RU0535,,"Cricket Ground",,52.936448,-1.133574,,,0,,,0
3300RU0536,,"Cricket Ground",,52.936501,-1.133409,,,0,,,0
3300RU0537,,"Hound Road",,52.935437,-1.131734,,,0,,,0
3300RU0538,,"Hound Road",,52.935363,-1.131423,,,0,,,0
3300RU0539,,Co-Op,,52.934073,-1.129634,,,0,,,0
3300RU0541,,"Central Ave Shops",,52.931994,-1.126819,,,0,,,0
3300RU0552,,Co-Op,,52.933625,-1.128661,,,0,,,0
3300RU0572,,"Stanholme Drive",,52.913796,-1.137565,,,0,,,0
3300RU0604,,"Rushcliffe School",,52.916884,-1.124636,,,0,,,0
3300RU0817,,"Greythorn Drive",,52.911747,-1.143867,,,0,,,0
3300RU0818,,"Greythorn Drive",,52.911923,-1.143313,,,0,,,0
3390A2,,"City, Angel Row A2",,52.953764,-1.15247,,,0,,,0
3390Q2,,"City, Queen Street Q2",,52.9546199,-1.1502249,,,0,,,0
3390W4,,"City, Victoria Centre W4",,52.9551113,-1.1472828,,,0,,,0
3390A3,,"City, Angel Row A3",,52.9538751,-1.1529338,,,0,,,0
3390M3,,"City, Maid Marian Way M3",,52.9512793,-1.1519872,,,0,,,0
3390N1,,"Canal Street",,52.9496369,-1.1423448,,,0,,,0
3390N3,,"Belward Street, Ice Arena",,52.9528999,-1.1410596,,,0,,,0
3390N6,,"Popham Street",,52.949149,-1.14464,,,0,,,0
3390UN34,,"Arts Centre",,52.9390496,-1.1888021,,,0,,,0
3390UN37,,"University Park Campus, East Dr",,52.9387944,-1.1922591,,,0,,,0
3390UN47,,"Beeston Lane, History",,52.9363481,-1.204089,,,0,,,0
3390UN48,,"Beeston La, East Mids Conf Ctr",,52.939861,-1.205185,,,0,,,0
3390UN49,,"Derby Hall",,52.9421624,-1.2024347,,,0,,,0
3390UN50,,"Lenton and Wortley Hall",,52.9423656,-1.1992315,,,0,,,0
3390UN51,,"Greenfield Street",,52.938489,-1.1857423,,,0,,,0
3390W1,,"City, Victoria Centre W1",,52.955165,-1.145957,,,0,,,0
3390BA06,,"Vernon Avenue",,52.9832443,-1.1798117,,,0,,,0
3390BA07,,"Vernon Rd, Basford Crossing",,52.9841943,-1.1807024,,,0,,,0
3390BA08,,"Vernon Avenue",,52.9830073,-1.1793396,,,0,,,0
3390BA09,,"Nottingham Road",,52.9819381,-1.1781236,,,0,,,0
3390BA21,,"Beech Avenue",,52.9719628,-1.1593111,,,0,,,0
3390BA22,,"Sherwood Rise Health Centre",,52.9733398,-1.1608034,,,0,,,0
3390BA23,,"Central Avenue",,52.9747733,-1.162667,,,0,,,0
3390BA24,,"Haydn Road",,52.9770601,-1.1669865,,,0,,,0
3390BA25,,"Nottingham Rd, Zulu Rd",,52.9783474,-1.1698065,,,0,,,0
3390BA26,,"Perry Road",,52.979752,-1.172669,,,0,,,0
3390BA35,,"Perry Road",,52.9798123,-1.1723253,,,0,,,0
3390BA36,,"Nottingham Rd, Zulu Rd",,52.9782618,-1.1691379,,,0,,,0
3390BA37,,"Haydn Road",,52.9762384,-1.1651854,,,0,,,0
3390BA38,,"Health Centre",,52.9739187,-1.1612985,,,0,,,0
3390BA82,,"Vernon Road",,52.9811909,-1.1766632,,,0,,,0
3390BU04,,"Bulwell Bus Station stand D",,52.999758,-1.197127,,,0,,,0
3390BU07,,"Bulwell Bus Station stand G",,52.999726,-1.197463,,,0,,,0
3390BU08,,"Bulwell Bus Station stand H",,52.99974,-1.197761,,,0,,,0
3390BU10,,"Bulwell Market",,53.0006211,-1.1969022,,,0,,,0
3390BU11,,"Vernon Rd, Basford Crossing",,52.9850839,-1.1819517,,,0,,,0
3390BU111,,"Acton Avenue",,52.9874257,-1.1839037,,,0,,,0
3390BU12,,"Acton Avenue",,52.9875892,-1.1841538,,,0,,,0
3390BU13,,"Catchems Corner",,52.9896811,-1.1850679,,,0,,,0
3390BU14,,"Bedford Grove",,52.9921246,-1.1874503,,,0,,,0
3390BU15,,"Highbury Hospital",,52.9934506,-1.1894219,,,0,,,0
3390BU16,,Piccadilly,,52.994454,-1.1902375,,,0,,,0
3390BU17,,"Deptford Crescent",,52.9968456,-1.1929344,,,0,,,0
3390BU18,,"Cantrell Road",,52.997776,-1.1935875,,,0,,,0
3390BU19,,"Bulwell Church",,52.999997,-1.1950065,,,0,,,0
3390BU36,,"Bulwell Church",,52.9997307,-1.1941769,,,0,,,0
3390BU37,,"Cantrell Road",,52.9981163,-1.1934024,,,0,,,0
3390BU38,,"Deptford Crescent",,52.9962547,-1.191962,,,0,,,0
3390BU39,,Piccadilly,,52.9949319,-1.190452,,,0,,,0
3390BU40,,"Highbury Hospital",,52.992949,-1.1883735,,,0,,,0
3390BU41,,"Bedford Grove",,52.992041,-1.187079,,,0,,,0
3390BU42,,"Vernon Rd, Catchems Corner",,52.9907168,-1.1853463,,,0,,,0
3390BU43,,"Gordon Street",,52.9885708,-1.1844035,,,0,,,0
3390BU67,,"Hazel Street",,53.0036461,-1.1975614,,,0,,,0
3390BU68,,"Latham Street",,53.0045604,-1.1984982,,,0,,,0
3390BU69,,"Rock Street",,53.0064246,-1.1990002,,,0,,,0
3390BU70,,"Rock Street",,53.0068995,-1.1987679,,,0,,,0
3390BU71,,"Latham Street",,53.0047122,-1.1983464,,,0,,,0
3390BU72,,"Hazel Street",,53.0038811,-1.1977508,,,0,,,0
3390BU73,,"Crabtree Rd East",,52.9971766,-1.1993502,,,0,,,0
3390FF01,,"Sherwood Rise, Gregory Blvd",,52.9686408,-1.1560997,,,0,,,0
3390FF02,,"Berridge Road",,52.9708597,-1.1584093,,,0,,,0
3390FF03,,"Beech Avenue",,52.9715821,-1.1588569,,,0,,,0
3390FF04,,"Berridge Road",,52.9703252,-1.157824,,,0,,,0
3390FF05,,"Sherwood Rise, Gregory Blvd",,52.9686203,-1.1557427,,,0,,,0
3390FO14,,"Frogmore Street",,52.9614202,-1.1507913,,,0,,,0
3390FO34,,"Forest Road",,52.9642006,-1.1524044,,,0,,,0
3390HV01,,"Hempshill Va, Armstrong Rd",,52.9958366,-1.2154518,,,0,,,0
3390HV02,,"Meadow Rise",,52.9968736,-1.2132129,,,0,,,0
3390HV03,,"Irwin Drive",,52.9977398,-1.2096211,,,0,,,0
3390HV04,,"Northern Cemetery",,52.9978642,-1.2067132,,,0,,,0
3390HV05,,"Crabtree Rd, Clayfield Close",,52.9966493,-1.205171,,,0,,,0
3390HV06,,"Courtleet Way",,52.9955561,-1.2030157,,,0,,,0
3390HV07,,"Crabtree Rd East",,52.9968343,-1.2005783,,,0,,,0
3390HV08,,"Courtleet Way",,52.9954232,-1.2033012,,,0,,,0
3390HV09,,"Crabtree Rd, Clayfield Close",,52.9971446,-1.205296,,,0,,,0
3390HV10,,"Hempshill La, Northern Cemetery",,52.997706,-1.2072525,,,0,,,0
3390HV11,,"Irwin Drive",,52.9976067,-1.2098917,,,0,,,0
3390HV12,,"Meadow Rise",,52.9966053,-1.2134264,,,0,,,0
3390HV13,,"Hempshill Vale, Armstrong Rd",,52.9956746,-1.215425,,,0,,,0
3390K3,,"City, King Street K3",,52.954471,-1.149454,,,0,,,0
3390SW01,,"Hoewood Rd, Bacton Ave",,53.0070433,-1.201433,,,0,,,0
3390SW02,,"Hoewood Rd, Bardney Dr",,53.0056091,-1.2047381,,,0,,,0
3390SW03,,"Catherine Close",,53.0035692,-1.2075475,,,0,,,0
3390SW04,,Aldi,,53.0039348,-1.2097911,,,0,,,0
3390SW05,,"Camberley Road",,53.005047,-1.2121254,,,0,,,0
3390SW06,,"Stoney Houghton Gardens",,53.0050522,-1.2142713,,,0,,,0
3390SW07,,"Corben Gardens",,53.003625,-1.216169,,,0,,,0
3390SW08,,"Rowan Gardens (out)",,53.002592,-1.2174454,,,0,,,0
3390SW09,,"Snape Wood, Rowan Gdns (in)",,53.0031286,-1.2170185,,,0,,,0
3390SW10,,"Stoney Houghton Gdns.",,53.0049193,-1.2145718,,,0,,,0
3390SW11,,"Sellers Wd Dr, Camberley Rd",,53.0052093,-1.212197,,,0,,,0
3390SW12,,Aldi,,53.0040783,-1.2097437,,,0,,,0
3390SW13,,"Catherine Close",,53.0037217,-1.2074851,,,0,,,0
3390SW14,,"Bardney Drive",,53.0058506,-1.2045548,,,0,,,0
3390SW15,,"Hoewood Rd, Bacton Ave",,53.0072209,-1.2011018,,,0,,,0
3390SW18,,"Dabell Avenue",,53.0069315,-1.2129853,,,0,,,0
3390SW19,,"Coop Distribution Centre",,53.0079709,-1.2138308,,,0,,,0
3390SW20,,"Blenheim Ind Est, Widdowson Close",,53.0080502,-1.2163034,,,0,,,0
3390SW25,,"Blenheim Ind Est, Widdowson Cl",,53.0082933,-1.2163587,,,0,,,0
3390SW26,,"Dabell Avenue",,53.0065993,-1.213051,,,0,,,0
3390SW27,,"Sellers Wood Drive",,53.0027241,-1.2129426,,,0,,,0
3390SW28,,Subway,,53.0003902,-1.2148179,,,0,,,0
3390SW30,,Subway,,53.000949,-1.214662,,,0,,,0
3390SW31,,"Sellers Wood Drive",,53.0032531,-1.2127393,,,0,,,0
3390SW39,,"Dabell Avenue",,53.0073058,-1.2165703,,,0,,,0
3390T4,,"City, Victoria Centre T4",,52.9571354,-1.1487316,,,0,,,0
3300GE0291,,"Greenwood Rd, Douglas Av",,52.959273,-1.091403,,,0,,,0
3300GE0295,,"Trentdale Road",,52.960412,-1.098079,,,0,,,0
3300GE0335,,"Oakdale Rd, Avondale Rd",,52.961776,-1.094314,,,0,,,0
3300GE0663,,"Mays Avenue",,52.957669,-1.094444,,,0,,,0
3390BF01,,"Parkdale Road",,52.9597254,-1.1108071,,,0,,,0
3390BF02,,"Eastdale Road",,52.959966,-1.106857,,,0,,,0
3390BF07,,"Harrogate Rd, Langdale Rd",,52.9584998,-1.1056069,,,0,,,0
3390BF08,,"Harrogate Road",,52.9571071,-1.1033133,,,0,,,0
3390BF09,,"Greenwood Avenue",,52.9573012,-1.0968932,,,0,,,0
3390BF14,,"The Bakersfield",,52.9601322,-1.1027297,,,0,,,0
3390BF15,,"Oakdale Rd, Eastdale Rd",,52.959834,-1.107351,,,0,,,0
3390BF16,,"Oakdale Rd, Parkdale Rd",,52.9595445,-1.1118529,,,0,,,0
3390BF21,,"Langdale Road East",,52.9578861,-1.0993373,,,0,,,0
3390SN26,,"Eyre Street",,52.9532512,-1.1361852,,,0,,,0
3390SN27,,"Sneinton Rd, Windmill Lane",,52.95192,-1.132138,,,0,,,0
3390SN28,,"Lord Nelson Street",,52.9519421,-1.126819,,,0,,,0
3390SN29,,"Sandringham Road",,52.9536968,-1.1233749,,,0,,,0
3390SN30,,"Edale Road",,52.9549739,-1.1210269,,,0,,,0
3390SN31,,"Skipton Circus",,52.9565985,-1.1182549,,,0,,,0
3390SN32,,"Sneinton Dale, Cardale Rd",,52.9582453,-1.1160479,,,0,,,0
3390SN33,,"Sneinton Dale, Cardale Rd",,52.9587422,-1.1151743,,,0,,,0
3390SN34,,"Skipton Circus",,52.9564808,-1.1181382,,,0,,,0
3390SN35,,"Edale Road",,52.9543423,-1.121918,,,0,,,0
3390SN36,,"Sandringham Road",,52.9530028,-1.1243565,,,0,,,0
3390SN37,,"Lord Nelson Street",,52.9515773,-1.1273325,,,0,,,0
3390SN38,,"Dale Street, Windmill Lane",,52.9512997,-1.1311634,,,0,,,0
3390SN39,,"Eyre Street",,52.9528133,-1.1353157,,,0,,,0
3390V1,,"City, Victoria Centre V1",,52.9552736,-1.147354,,,0,,,0
3300GE0135,,"Arnold Lane, Wykes Avenue",,52.977819,-1.082093,,,0,,,0
3300GE0136,,"Arnold Lane, Wykes Avenue",,52.978231,-1.083052,,,0,,,0
3300GE0154,,"Knight Street",,52.963172,-1.079411,,,0,,,0
3300GE0155,,"Knight Street",,52.9629,-1.080191,,,0,,,0
3300GE0188,,"Arnold La Cemetery",,52.980634,-1.086889,,,0,,,0
3300GE0206,,"Main Rd, Westdale La E",,52.972573,-1.081355,,,0,,,0
3300GE0207,,"Tennyson Avenue",,52.974009,-1.081042,,,0,,,0
3300GE0208,,"Tennyson Avenue",,52.973999,-1.080908,,,0,,,0
3300GE0209,,"Church View",,52.97537,-1.080388,,,0,,,0
3300GE0210,,"Church View",,52.97543,-1.080029,,,0,,,0
3300GE0211,,"Vale Rd, New Vale Road",,52.955868,-1.091728,,,0,,,0
3300GE0214,,"St John School",,52.957726,-1.08898,,,0,,,0
3300GE0215,,"St John School",,52.958011,-1.088601,,,0,,,0
3300GE0216,,"Verona Avenue",,52.95952,-1.084982,,,0,,,0
3300GE0217,,"Verona Avenue",,52.959616,-1.084503,,,0,,,0
3300GE0218,,"Chaworth Road",,52.960307,-1.081329,,,0,,,0
3300GE0219,,"Private Road No. 8",,52.959075,-1.080806,,,0,,,0
3300GE0226,,"Besecar Avenue",,52.981871,-1.08874,,,0,,,0
3300GE0240,,"Arnold La Cemetery",,52.980195,-1.08593,,,0,,,0
3300GE0272,,"Newton Road",,52.984068,-1.092542,,,0,,,0
3300GE0293,,"Colwick Manor Farm",,52.954306,-1.08722,,,0,,,0
3300GE0320,,Hillarys,,52.955438,-1.082567,,,0,,,0
3300GE0321,,"Netherfield, Victoria Rd Shops",,52.9643337,-1.0784778,,,0,,,0
3300GE0324,,"Netherfield, Victoria Rd Shops",,52.963993,-1.078619,,,0,,,0
3300GE0325,,"Chaworth Road",,52.960224,-1.081245,,,0,,,0
3300GE0326,,"Private Rd no. 2, Private Rd no. 1",,52.95673,-1.078714,,,0,,,0
3300GE0327,,Hillarys,,52.954873,-1.0838,,,0,,,0
3300GE0334,,"Colwick Manor Farm",,52.954216,-1.087312,,,0,,,0
3300GE0336,,"Private Rd no. 1, Private Rd no. 2",,52.957585,-1.07877,,,0,,,0
3300GE0498,,"Manor Road",,52.967689,-1.081027,,,0,,,0
3300GE0499,,"Elm Drive",,52.966815,-1.079616,,,0,,,0
3300GE0517,,"Private Rd no. 2, Private Rd no. 1",,52.956688,-1.079146,,,0,,,0
3300GE0528,,"Gedling, Wollaton Ave",,52.98161,-1.093946,,,0,,,0
3300GE0531,,"Turpin Avenue",,52.98308,-1.094343,,,0,,,0
3300GE0629,,"Vale Rd, New Vale Rd",,52.955403,-1.093182,,,0,,,0
3300GE0774,,"Private Road No. 2",,52.957271,-1.078544,,,0,,,0
3300GE0859,,"Newton Road",,52.983833,-1.093042,,,0,,,0
3300GE0860,,"Turpin Avenue",,52.983268,-1.094177,,,0,,,0
3300GE0863,,"Besecar Avenue",,52.98125,-1.087574,,,0,,,0
3390CK01,,"Racecourse Road",,52.950347,-1.1153457,,,0,,,0
3390CK02,,"Greyhound Stadium",,52.9506669,-1.1088347,,,0,,,0
3390CK03,,"Candle Meadow",,52.9545834,-1.0976941,,,0,,,0
3390CK12,,"Candle Meadow",,52.954747,-1.096343,,,0,,,0
3390CK13,,"Greyhound Stadium",,52.9505072,-1.1091059,,,0,,,0
3390CK14,,"Racecourse Road",,52.9502679,-1.1155854,,,0,,,0
3390CK23,,"Rectory Road",,52.954804,-1.0924348,,,0,,,0
3390CK27,,"Racecourse Park and Ride",,52.949556,-1.114769,,,0,,,0
3390CK28,,"Racecourse Park and Ride",,52.949945,-1.113755,,,0,,,0
3390SN14,,"Lower Eldon Street",,52.9500989,-1.1341494,,,0,,,0
3390SN15,,"Meadow Lane",,52.949592,-1.1275213,,,0,,,0
3390SN16,,"Colwick Road, Trent Lane",,52.9501651,-1.1235505,,,0,,,0
3390SN17,,"Lyndhurst Road",,52.9507631,-1.1217523,,,0,,,0
3390SN18,,"Colwick Crossing",,52.9512628,-1.1188248,,,0,,,0
3390SN19,,"Colwick Crossing",,52.9511513,-1.1183359,,,0,,,0
3390SN20,,"Lyndhurst Road",,52.9505326,-1.1221886,,,0,,,0
3390SN21,,"Trent Lane",,52.949707,-1.1248249,,,0,,,0
3390SN22,,"Meadow Lane",,52.948856,-1.1301407,,,0,,,0
3390SN23,,"Lower Eldon Street",,52.9505082,-1.1347961,,,0,,,0
3390SN24,,"Pennyfoot Street",,52.9521289,-1.1363862,,,0,,,0
3390SN40,,"Lees Hill Street",,52.949008,-1.1300186,,,0,,,0
3390SN49,,"Pennyfoot Street",,52.9514106,-1.1377401,,,0,,,0
3390SN50,,"Racecourse Road",,52.9486838,-1.1177461,,,0,,,0
3390SN51,,"Virgin Media",,52.9474788,-1.1213426,,,0,,,0
3390SN52,,"Daleside Rd, Trent La",,52.9464598,-1.1245631,,,0,,,0
3390SN53,,"Poulton Drive",,52.9462174,-1.1270534,,,0,,,0
3390SN56,,"Poulton Drive",,52.9464214,-1.1266772,,,0,,,0
3390SN57,,"Daleside Rd, Trent La",,52.9466737,-1.1243206,,,0,,,0
3390SN58,,"Virgin Media",,52.9482755,-1.1196744,,,0,,,0
3390SN67,,"Lady Bay Retail Park",,52.9473036,-1.1317608,,,0,,,0
3390SN68,,"Lady Bay Retail Park",,52.9473158,-1.1321921,,,0,,,0
3300GE0092,,"Fraser Crescent",,52.9761342,-1.1123319,,,0,,,0
3300GE0122,,"Burton Avenue",,52.971726,-1.109489,,,0,,,0
3300GE0123,,"Hillview Road",,52.972995,-1.115762,,,0,,,0
3300GE0124,,"Prospect Road",,52.972468,-1.111409,,,0,,,0
3300GE0125,,"Foxhill Road West",,52.97196,-1.110794,,,0,,,0
3300GE0128,,"Ernest Road",,52.974371,-1.109732,,,0,,,0
3300GE0132,,"Fraser Rd, Marshall Hill Dr",,52.976567,-1.113768,,,0,,,0
3300GE0145,,"Ernest Road",,52.9753219,-1.1095041,,,0,,,0
3300GE0161,,"Marshall Road",,52.976012,-1.117711,,,0,,,0
3300GE0169,,"Lees Road",,52.976789,-1.119393,,,0,,,0
3300GE0176,,"Fraser Road",,52.972924,-1.1074238,,,0,,,0
3300GE0178,,"Valley Rd, Foxhill Rd Central",,52.971273,-1.105504,,,0,,,0
3300GE0501,,"Valley Road",,52.975731,-1.114976,,,0,,,0
3300GE0502,,"Hickling Road",,52.977736,-1.121057,,,0,,,0
3300GE0549,,"Porchester Rd, Morley Rd",,52.971713,-1.119883,,,0,,,0
3300GE0557,,"Moore Road",,52.976868,-1.122772,,,0,,,0
3300GE0558,,"Lees Road Top",,52.975548,-1.121727,,,0,,,0
3300GE0559,,"Porchester Rd, Longbeck Ave",,52.973649,-1.120306,,,0,,,0
3300GE0802,,"Porchester Rd, Morley Rd",,52.970807,-1.120051,,,0,,,0
3390GR02,,"Thorneywood Mt Top",,52.9695008,-1.1197346,,,0,,,0
3390GR03,,"Wheatfields Road",,52.9673461,-1.1225479,,,0,,,0
3390GR04,,"Thirlmere Close",,52.9645775,-1.125016,,,0,,,0
3390GR05,,"Edginton Street",,52.9636149,-1.1261521,,,0,,,0
3390GR06,,"Dowson Street",,52.9620415,-1.1285659,,,0,,,0
3390GR07,,"Ridgway Street",,52.9609537,-1.1310145,,,0,,,0
3390GR08,,"Beacon Hill Rise, Nugent Gdns",,52.9609345,-1.1345433,,,0,,,0
3390GR09,,"Hawkridge Gardens",,52.95846,-1.1367067,,,0,,,0
3390GR10,,"Roden Street",,52.956676,-1.137367,,,0,,,0
3390GR11,,"Roden Street",,52.9558701,-1.1378301,,,0,,,0
3390GR12,,"Hawkridge Gardens",,52.957358,-1.137279,,,0,,,0
3390GR13,,"Kelvedon Gardens",,52.9593046,-1.1366452,,,0,,,0
3390GR14,,"Beacon Hill Rise, Nugent Gdns",,52.9610958,-1.1344805,,,0,,,0
3390GR15,,"Ridgway Street",,52.9613176,-1.1303819,,,0,,,0
3390GR16,,"Dowson Street",,52.9628295,-1.1281481,,,0,,,0
3390GR17,,"Edginton Street",,52.9638932,-1.1260869,,,0,,,0
3390GR18,,"Thirlmere Close",,52.9661056,-1.1237791,,,0,,,0
3390GR19,,"Wheatfields Road",,52.9677392,-1.1222123,,,0,,,0
3390GR20,,"Thorneywood Mt Top",,52.9683063,-1.121099,,,0,,,0
3390GR28,,"Victoria Leisure Centre",,52.9559248,-1.1391687,,,0,,,0
3390GR31,,"Victoria Leisure Centre",,52.9557036,-1.1384139,,,0,,,0
3390H4,,Pryzm,,52.9559246,-1.1441258,,,0,,,0
3390Q3,,"City, Queen Street Q3",,52.954792,-1.1504,,,0,,,0
3390V2,,"City, Victoria Centre V2",,52.95528,-1.146997,,,0,,,0
3300GE0313,,"Iona Gardens",,53.010802,-1.166277,,,0,,,0
3300GE0585,,"Muirfield Road",,53.012445,-1.159523,,,0,,,0
3300GE0586,,"Stockdale Close",,53.014548,-1.162061,,,0,,,0
3300GE0587,,"Ruthwell Gardens",,53.013766,-1.164755,,,0,,,0
3300GE0588,,"Bewcastle Rd, Tithe Gdns",,53.012626,-1.164856,,,0,,,0
3390BP08,,"Hartcroft Road",,52.9981197,-1.1601293,,,0,,,0
3390BP09,,"Eastglade Road",,53.000752,-1.163118,,,0,,,0
3390BP10,,"Belsay Road",,53.001844,-1.161815,,,0,,,0
3390BP11,,"Beckhampton Rd, Elmbridge Shops",,53.0030827,-1.1576933,,,0,,,0
3390BP12,,"Chediston Vale",,53.0058884,-1.1565508,,,0,,,0
3390BP13,,"Belleville Drive",,53.0080323,-1.1571647,,,0,,,0
3390BP14,,"Harkstead Road",,53.0085984,-1.1584057,,,0,,,0
3390BP15,,"Harkstead Road",,53.0086478,-1.1577638,,,0,,,0
3390BP16,,"Chediston Vale",,53.005271,-1.1556835,,,0,,,0
3390BP17,,"Beckhampton Rd, Elmbridge Shops",,53.0029877,-1.156965,,,0,,,0
3390BP18,,"Belsay Road",,53.0021456,-1.1611986,,,0,,,0
3390BP19,,"Eastglade Road",,52.99842,-1.161912,,,0,,,0
3390BP20,,"Hartcroft Road",,52.9982113,-1.1603808,,,0,,,0
3390BP29,,"Oxclose Police Station",,52.9968562,-1.1543577,,,0,,,0
3390BP43,,"Oxclose Police Station",,52.9971895,-1.1544555,,,0,,,0
3390P4,,"City, Parliament St P4",,52.955176,-1.148785,,,0,,,0
3390P5,,"City, Parliament St P5",,52.955191,-1.148413,,,0,,,0
3390RP04,,"Rise Park Bus Terminus",,53.0101973,-1.1736072,,,0,,,0
3390RP09,,"Pine Hill Close",,53.0099207,-1.1713172,,,0,,,0
3390SH30,,"Sherwood Manor",,52.9840611,-1.1451785,,,0,,,0
3390SH31,,"Perry Road",,52.9854363,-1.1476539,,,0,,,0
3390SH32,,"Five Ways",,52.9879368,-1.1490944,,,0,,,0
3390SH33,,"Ribblesdale Road",,52.9914569,-1.1510663,,,0,,,0
3390SH34,,"Edwards La, City Hospital",,52.9930637,-1.1520032,,,0,,,0
3390SH35,,"Arnold Road",,52.9954997,-1.1532369,,,0,,,0
3390SH36,,"Arnold Road",,52.9956965,-1.1530989,,,0,,,0
3390SH37,,"Edwards La, City Hospital",,52.9933598,-1.1519229,,,0,,,0
3390SH38,,"Ribblesdale Road",,52.9909861,-1.1505988,,,0,,,0
3390SH39,,"Five Ways",,52.9879168,-1.1488118,,,0,,,0
3390SH40,,"Perry Road",,52.9848158,-1.1463702,,,0,,,0
3390SH94,,"Sherwood Shops",,52.9825983,-1.1455351,,,0,,,0
3390T5,,"Victoria Ctr, Rose of England T5",,52.9583348,-1.1492589,,,0,,,0
3390TV01,,"Duke Of St Albans",,53.0096922,-1.1592489,,,0,,,0
3390TV43,,"Kyle View",,53.0093591,-1.1630113,,,0,,,0
3390TV44,,"Muirfield Road",,53.0095661,-1.1668824,,,0,,,0
3390TV45,,"Muirfield Road",,53.0096767,-1.165986,,,0,,,0
3390TV46,,"Kyle View",,53.0090368,-1.1606477,,,0,,,0
3390BP07,,"Holmewood Crescent",,52.9962914,-1.1583768,,,0,,,0
3390BP21,,"Holmewood Crescent",,52.9960911,-1.1580231,,,0,,,0
3390BP28,,"Stevenholme Crescent",,52.9975036,-1.1594558,,,0,,,0
3390BP56,,"Stevenholme Crescent",,52.9986294,-1.1635764,,,0,,,0
3390BP57,,"Stevenholme Crescent",,52.9980814,-1.1598022,,,0,,,0
3390BP68,,"Hartcroft Road",,52.994753,-1.157601,,,0,,,0
3390BW06,,"Gainsford Crescent",,52.9925574,-1.1719923,,,0,,,0
3390BW07,,"Teviot Road",,52.9944637,-1.1759488,,,0,,,0
3390BW08,,"Eardley Road",,52.9964203,-1.178087,,,0,,,0
3390BW09,,"Gala Bingo",,52.9977027,-1.1763491,,,0,,,0
3390BW10,,"Southglade Leisure Centre",,52.9985478,-1.1724737,,,0,,,0
3390BW11,,"Morrell Bank",,52.999196,-1.1687361,,,0,,,0
3390BW12,,"Morrell Bank",,52.9988261,-1.1711273,,,0,,,0
3390BW13,,"Southglade Leisure Centre",,52.9985366,-1.1721461,,,0,,,0
3390BW14,,"Gala Bingo",,52.9975091,-1.1769488,,,0,,,0
3390BW15,,"Eardley Road",,52.9962931,-1.1778957,,,0,,,0
3390BW16,,"Teviot Road",,52.9939431,-1.1747668,,,0,,,0
3390BW17,,"Gainsford Crescent",,52.9924,-1.1713398,,,0,,,0
3390BW22,,"Gainsford Close",,52.9936317,-1.1700647,,,0,,,0
3390BW23,,"Pavior Road",,52.9950803,-1.1664014,,,0,,,0
3390BW24,,"Carnwood Road",,52.9942431,-1.1623947,,,0,,,0
3390BW25,,"Arnold Rd, Landcroft Cres",,52.9945388,-1.1584407,,,0,,,0
3390BW26,,"Arnold Rd, Landcroft Cres",,52.9941403,-1.1592828,,,0,,,0
3390BW27,,"Carnwood Road",,52.9940979,-1.1622038,,,0,,,0
3390BW28,,"Pavior Road",,52.9949544,-1.1676703,,,0,,,0
3390BW29,,"Gainsford Close",,52.9933348,-1.1700406,,,0,,,0
3390RP03,,"Rise Park Bus Terminus",,53.010298,-1.1738587,,,0,,,0
3390RP07,,"Rise Park Road West",,53.0104383,-1.1824561,,,0,,,0
3390RP08,,"Bestwd Pk Dr E, Rise Pk Rd E",,53.0103028,-1.1784493,,,0,,,0
3390RP10,,"Brownlow Dr, Rise Pk Shops",,53.0106974,-1.1731207,,,0,,,0
3390RP12,,"Dunvegan Drive",,53.0128108,-1.1732443,,,0,,,0
3390RP13,,"Rosenheath Avenue",,53.0137173,-1.1769236,,,0,,,0
3390RP14,,"Glensford Gardens",,53.0137867,-1.1791582,,,0,,,0
3390RP15,,"Haverhill Crescent",,53.0135786,-1.1828737,,,0,,,0
3390RP16,,"Revelstoke Way",,53.0117722,-1.1842642,,,0,,,0
3390RP17,,"Bestwood Park Drive West",,53.0106921,-1.1840759,,,0,,,0
3390T2,,"City, Victoria Centre T2",,52.9561986,-1.148482,,,0,,,0
3390TV07,,"Old Farm Road",,53.008933,-1.1689067,,,0,,,0
3390TV09,,"Stacey Avenue",,53.0027757,-1.1715732,,,0,,,0
3390TV10,,"Ridgeway, Tesco",,53.0037463,-1.1767109,,,0,,,0
3390TV13,,"Ridgeway, Tesco",,53.0036012,-1.17652,,,0,,,0
3390TV14,,"Flaxton Way",,53.0025304,-1.1737835,,,0,,,0
3390TV15,,"Stacey Avenue",,53.0030461,-1.1703908,,,0,,,0
3390TV27,,"Edern Close",,53.0009795,-1.1666752,,,0,,,0
3390TV28,,"Parkview Rd, Ridge Way",,53.0025812,-1.1668977,,,0,,,0
3390TV31,,"Verder Grove",,53.0073081,-1.1756893,,,0,,,0
3390TV32,,"Parkvale Academy",,53.0084111,-1.1727024,,,0,,,0
3390TV33,,"Old Farm Road",,53.0088,-1.1704593,,,0,,,0
3390TV35,,"Parkvale Academy",,53.0084164,-1.1721657,,,0,,,0
3390TV36,,"Verder Grove",,53.0052558,-1.1765928,,,0,,,0
3390TV41,,"Parkview Rd, Ridge Way",,53.0030557,-1.1666203,,,0,,,0
3390TV42,,"Edern Close",,53.0000139,-1.1661425,,,0,,,0
3390TV49,,"Stevenholme Cres",,52.99864,-1.164805,,,0,,,0
3300GE0427,,"Cross Street",,53.004656,-1.138885,,,0,,,0
3300GE0428,,"Redhill Cemetery",,53.006995,-1.137855,,,0,,,0
3300GE0429,,"Redhill Lodge Drive",,53.009905,-1.135739,,,0,,,0
3300GE0430,,"Mansfield Road",,53.011483,-1.133145,,,0,,,0
3300GE0431,,"Lodge Farm Lane",,53.010911,-1.131234,,,0,,,0
3300GE0432,,"Mellors Rd, Churchmoor La",,53.009567,-1.129383,,,0,,,0
3300GE0433,,"Redhill Rd, Churchmoor La",,53.009769,-1.129975,,,0,,,0
3300GE0434,,"Mansfield Road",,53.011476,-1.133518,,,0,,,0
3300GE0435,,"Redhill Lodge Drive",,53.009291,-1.135842,,,0,,,0
3300GE0436,,"Redhill Cemetery",,53.007396,-1.13734,,,0,,,0
3300GE0477,,"Oxclose Lane, Mansfield Rd",,53.002766,-1.141054,,,0,,,0
3300GE0478,,"Queens Bower Road",,53.001329,-1.143794,,,0,,,0
3300GE0479,,"Byron Street",,53.000163,-1.145352,,,0,,,0
3300GE0480,,"Burford School",,52.998186,-1.147909,,,0,,,0
3300GE0481,,"Oxclose Police Station",,52.996615,-1.152127,,,0,,,0
3300GE0482,,"Oxclose Police Station",,52.99684,-1.152078,,,0,,,0
3300GE0483,,"Burford School",,52.998132,-1.148464,,,0,,,0
3300GE0484,,"Florimel Court",,53.000848,-1.145345,,,0,,,0
3300GE0485,,"Queens Bower Road",,53.002237,-1.142495,,,0,,,0
3300GE0486,,"Oxclose Lane, Mansfield Rd",,53.00338,-1.140252,,,0,,,0
3300GE0589,,"Bewcastle Rd, Tithe Gdns",,53.01242,-1.164964,,,0,,,0
3300GE0590,,"Ruthwell Gardens",,53.013942,-1.16476,,,0,,,0
3300GE0591,,"Stockdale Close",,53.014671,-1.161552,,,0,,,0
3300GE0592,,"Muirfield Road",,53.013288,-1.159239,,,0,,,0
3300GE0593,,"Emmanuel Avenue",,53.012236,-1.159155,,,0,,,0
3300GE0664,,"Arnold, Front Street stand 1",,53.003949,-1.127466,,,0,,,0
3390BP30,,"Bembridge Drive",,52.9979756,-1.1537547,,,0,,,0
3390BP31,,"Mosswood Crescent",,53.0004118,-1.1499668,,,0,,,0
3390BP32,,"Hillington Rise",,53.0029563,-1.1512878,,,0,,,0
3390BP33,,"Chippenham Rd, Wendling Gdns",,53.0041957,-1.1511294,,,0,,,0
3390BP38,,"Deer Park Drive",,53.0068101,-1.152166,,,0,,,0
3390BP39,,"Chippenham Rd, Wendling Gdns",,53.0044794,-1.1505724,,,0,,,0
3390BP40,,"Hillington Rise",,53.0025796,-1.1501477,,,0,,,0
3390BP41,,"Mosswood Crescent",,53.0004106,-1.1498029,,,0,,,0
3390BP42,,"Bembridge Drive",,52.9985064,-1.1525522,,,0,,,0
3390BP44,,"Mildenhall Crescent",,53.0060764,-1.1513905,,,0,,,0
3390BP45,,"Tregarth Square",,53.0080035,-1.1543783,,,0,,,0
3390BP46,,"Tregarth Square",,53.007983,-1.154021,,,0,,,0
3390BP55,,"Queens Bower Rd, Mildenhall Cres",,53.0057025,-1.1506378,,,0,,,0
3390TV16,,"Bradwell Drive West",,53.0043425,-1.1680858,,,0,,,0
3390TV17,,"Old Farm Rd, Knights Close",,53.0058072,-1.167998,,,0,,,0
3390TV18,,"Old Farm Road",,53.0080743,-1.1695194,,,0,,,0
3390TV19,,"Iona Gardens",,53.010636,-1.1669065,,,0,,,0
3390TV26,,"Bewcastle Rd, Duke Of St Albans",,53.0097426,-1.158756,,,0,,,0
3390TV38,,"Ridgeway, Crossfield Dr",,53.0072142,-1.1596994,,,0,,,0
3390TV39,,"Bradwell Drive East",,53.0049302,-1.1621581,,,0,,,0
3390TV40,,"Top Valley Social Club",,53.0041139,-1.1649607,,,0,,,0
3390BE12,,"Beechdale Rd Top",,52.9735757,-1.2164358,,,0,,,0
3390BE13,,"Fircroft Avenue",,52.9726633,-1.2171225,,,0,,,0
3390BE14,,"Highwood Avenue",,52.9710808,-1.2157215,,,0,,,0
3390BE15,,"Denewood Crescent",,52.9701505,-1.2136983,,,0,,,0
3390BE16,,"Kingsbury Drive",,52.9693458,-1.2116431,,,0,,,0
3390BE17,,"Indoor Bowls",,52.9680291,-1.2083019,,,0,,,0
3390BE45,,"Webb Road",,52.963506,-1.202751,,,0,,,0
3390BE61,,"Fremount Drive",,52.9668537,-1.205941,,,0,,,0
3390BU24,,"Hucknall La, Morrisons",,53.009055,-1.1918273,,,0,,,0
3390BU25,,"Ventura Drive",,53.0112406,-1.1906685,,,0,,,0
3390BU26,,"Hucknall La, Lawton Dr",,53.0125483,-1.1899584,,,0,,,0
3390BU27,,"Bestwood Road",,53.0114045,-1.1857021,,,0,,,0
3390BU28,,"Bestwood Road",,53.0113612,-1.1859414,,,0,,,0
3390BU29,,"Lawton Drive",,53.0123945,-1.1898271,,,0,,,0
3390BU30,,"Ventura Drive",,53.0109877,-1.1904944,,,0,,,0
3390BU31,,"Hucknall La, Morrisons",,53.0094456,-1.1911045,,,0,,,0
3390RP01,,"Rise Park Bus Terminus",,53.0102753,-1.1744702,,,0,,,0
3390RP05,,"Rise Park Road East",,53.0101598,-1.1772745,,,0,,,0
3390RP06,,"Rise Park Road West",,53.0103198,-1.1835315,,,0,,,0
3390BA27,,"Basford Church",,52.979922,-1.17914,,,0,,,0
3390BA28,,"Basford Road",,52.9807677,-1.1817801,,,0,,,0
3390BA29,,"Bar Lane",,52.9818131,-1.1834583,,,0,,,0
3390BA30,,"Percy Street, Coriander Dr",,52.9830048,-1.1855063,,,0,,,0
3390BA31,,"Percy Street, Coriander Dr",,52.98325,-1.1858741,,,0,,,0
3390BA32,,"Bar Lane",,52.9815209,-1.1828085,,,0,,,0
3390BA33,,"Basford Road",,52.9803656,-1.1808344,,,0,,,0
3390BA34,,"Basford Church",,52.9792599,-1.178234,,,0,,,0
3390BU03,,"Bulwell Bus Station stand C",,52.999777,-1.197374,,,0,,,0
3390BU100,,"Winbourne Walk",,53.0089359,-1.1954661,,,0,,,0
3390BU101,,"Springhill Close",,53.0097412,-1.1975825,,,0,,,0
3390BU102,,"Wingbourne Walk",,53.009024,-1.19534,,,0,,,0
3390BU122,,"Springhill Close",,53.0096517,-1.1976289,,,0,,,0
3390BU20,,"Duke Street",,53.002405,-1.1974801,,,0,,,0
3390BU22,,"Squires Avenue",,53.0060885,-1.1931643,,,0,,,0
3390BU23,,"Ludford Road",,53.0078167,-1.1921634,,,0,,,0
3390BU33,,"Squires Avenue",,53.0068027,-1.1924357,,,0,,,0
3390BU80,,"Hoewood Road",,53.0076917,-1.1989321,,,0,,,0
3390BU81,,"Sandhurst Road",,53.0084824,-1.1988727,,,0,,,0
3390BU82,,"Norwich Gardens turning circle",,53.0100975,-1.199752,,,0,,,0
3390BU83,,"Bulwell, Morrisons Car Pk",,53.0089903,-1.1902486,,,0,,,0
3390CI06,,"Mill Street",,52.9832732,-1.187959,,,0,,,0
3390CI07,,"Basford Hall College",,52.9829316,-1.1919127,,,0,,,0
3390CI08,,"Nuthall Road",,52.9821747,-1.1942951,,,0,,,0
3390CI09,,"Broxtowe Lane",,52.9828608,-1.1960549,,,0,,,0
3390CI10,,"Basford Hall College",,52.9843334,-1.1984705,,,0,,,0
3390CI110,,"Nuthall Rd, Cinderhill Island",,52.985797,-1.201883,,,0,,,0
3390CI12,,"Nuthall Rd, Cinderhill Island",,52.986358,-1.202117,,,0,,,0
3390CI13,,"Basford Hall College",,52.9842927,-1.1977562,,,0,,,0
3390CI14,,"Nuthall Road",,52.9823101,-1.194382,,,0,,,0
3390CI15,,"Basford Hall College",,52.9833749,-1.189685,,,0,,,0
3390CI16,,"Mill Street",,52.9840538,-1.1877358,,,0,,,0
3390CI17,,"Greenwich Avenue",,52.9855587,-1.1908954,,,0,,,0
3390CI18,,"Christina Avenue",,52.9870874,-1.1949337,,,0,,,0
3390CI19,,"Sycamore Rise",,52.987762,-1.197856,,,0,,,0
3390CI20,,"Bagnall Rd, Tricornia Dr",,52.9888174,-1.1995197,,,0,,,0
3390CI21,,"Bagnall Rd, Tricornia Dr",,52.9885059,-1.1986614,,,0,,,0
3390CI22,,"Sycamore Rise",,52.9874299,-1.1964021,,,0,,,0
3390CI23,,"Christina Avenue",,52.9870664,-1.1944871,,,0,,,0
3390CI24,,"Greenwich Avenue",,52.9855481,-1.1906573,,,0,,,0
3390CI25,,"Mill Street",,52.9840329,-1.1873043,,,0,,,0
3390T3,,"City, Victoria Centre T3",,52.9568111,-1.1486486,,,0,,,0
3390AS26,,"Broxtowe Lane",,52.976335,-1.2095649,,,0,,,0
3390AS27,,"Minver Crescent",,52.9763217,-1.2062291,,,0,,,0
3390AS33,,"Minver Crescent",,52.9762437,-1.2066624,,,0,,,0
3390AS34,,"Broxtowe Lane",,52.9762658,-1.2099832,,,0,,,0
3390AS39,,"Nuthall Road",,52.976765,-1.1919533,,,0,,,0
3390AS41,,"Harwill Crescent",,52.976252,-1.1958499,,,0,,,0
3390AS42,,"Shepton Crescent",,52.9762415,-1.1982926,,,0,,,0
3390AS43,,"Minver Cres, Hilcot Drive",,52.9768606,-1.2007832,,,0,,,0
3390AS50,,"Roslyn Drive",,52.9776628,-1.2037769,,,0,,,0
3390AS51,,"Minver Cres, Hilcot Drive",,52.9768056,-1.2006204,,,0,,,0
3390AS52,,"Shepton Crescent",,52.9763269,-1.1976208,,,0,,,0
3390AS53,,"Harwill Crescent",,52.9763441,-1.1948504,,,0,,,0
3390AS54,,"Nuthall Road",,52.9769463,-1.1921882,,,0,,,0
3390AS67,,"Coleby Road",,52.9776206,-1.2095861,,,0,,,0
3390AS68,,"Coleby Road",,52.9777827,-1.2096278,,,0,,,0
3390AS79,,"Rosslyn Drive",,52.9772649,-1.2047672,,,0,,,0
3390BU02,,"Bulwell Bus Station stand B",,52.999799,-1.197661,,,0,,,0
3390RA31,,"Alfreton Rd, Gregory Blvd",,52.9641324,-1.1785506,,,0,,,0
3390WM11,,"Western Boulevard",,52.9736628,-1.1865755,,,0,,,0
3390WM12,,"Nuthall Rd, Basford Rd",,52.9761254,-1.1891206,,,0,,,0
3390WM13,,"Nuthall Rd, Bar Lane",,52.9771555,-1.1898907,,,0,,,0
3390WM14,,"Basford Road",,52.9755442,-1.1882677,,,0,,,0
3390WM15,,"Western Boulevard",,52.9736879,-1.186307,,,0,,,0
3390WM16,,"Nuthall Rd, The Whitemoor",,52.9706005,-1.1844142,,,0,,,0
3390WM17,,"Aspley Lane",,52.9679913,-1.184106,,,0,,,0
3390WM18,,"Aspley Lane",,52.967975,-1.1843445,,,0,,,0
3390WM19,,"The Whitemoor",,52.9705124,-1.1846839,,,0,,,0
3300GE0341,,"Arnold, Front Street stand 2",,53.004144,-1.127402,,,0,,,0
3300GE0413,,"Galway Road",,53.0054255,-1.1346671,,,0,,,0
3300GE0446,,"Furlong Avenue",,53.0045056,-1.1379641,,,0,,,0
3300GE0447,,"Galway Road",,53.005557,-1.134564,,,0,,,0
3300GE0448,,"James Street",,53.0064819,-1.1315907,,,0,,,0
3300GE0449,,"Furlong Avenue",,53.0041663,-1.1382838,,,0,,,0
3300GE0487,,"Bestwood Lodge Drive",,53.003937,-1.145219,,,0,,,0
3300GE0491,,"Roundwood Road",,53.002435,-1.143743,,,0,,,0
3300GE0492,,"Roundwood Road",,53.002921,-1.143808,,,0,,,0
3300GE0665,,"James Street",,53.0062431,-1.1321321,,,0,,,0
3390AS57,,"Bells Lane",,52.9807233,-1.2057165,,,0,,,0
3390AS58,,"The Green",,52.9810883,-1.2025074,,,0,,,0
3390AS59,,"Dulverton Vale",,52.9814438,-1.2005497,,,0,,,0
3390AS60,,"Broxtowe La, Broxtowe Ave",,52.9819237,-1.1970703,,,0,,,0
3390AS61,,"Broxtowe La, Broxtowe Ave",,52.9818311,-1.1966698,,,0,,,0
3390AS62,,"Dulverton Vale",,52.9815951,-1.1989978,,,0,,,0
3390AS63,,"The Green",,52.9809377,-1.2028379,,,0,,,0
3390AS64,,"Bells Lane",,52.9806155,-1.2057334,,,0,,,0
3390BP67,,"Hillington Rise",,53.0041302,-1.1470026,,,0,,,0
3390BU06,,"Bulwell Bus Station stand F",,52.999699,-1.197223,,,0,,,0
3390CI02,,"Broxtowe Lane",,52.9807002,-1.1942779,,,0,,,0
3390CI03,,"Llanberis Grove",,52.9793059,-1.1928144,,,0,,,0
3390CI04,,"Bar Lane",,52.9781578,-1.1918677,,,0,,,0
3390CI05,,"Llanberis Grove",,52.9795704,-1.1933755,,,0,,,0
3390CI40,,"Broxtowe Lane",,52.9812177,-1.1950279,,,0,,,0
3390RP02,,"Rise Park Bus Terminus",,53.0103272,-1.174186,,,0,,,0
3390TV08,,"Old Farm Rd, Knights Close",,53.0052562,-1.1676212,,,0,,,0
3390TV29,,"Top Valley Social Club",,53.0043352,-1.1644795,,,0,,,0
3390TV30,,"Bradwell Drive East",,53.0051521,-1.1617514,,,0,,,0
3390TV34,,"Crossfield Drive",,53.0078529,-1.1597615,,,0,,,0
3390TV47,,"Bradwell Drive West",,53.0035786,-1.1681154,,,0,,,0
3300BR0521,,"Church Street",,52.924669,-1.216025,,,0,,,0
3390UN28,,"West Entrance",,52.9347497,-1.2030173,,,0,,,0
3390UN43,,"Lenton and Wortley Hall",,52.9426127,-1.1972179,,,0,,,0
3390UN44,,"East Mids Conference Centre",,52.940258,-1.205386,,,0,,,0
3390UN45,,History,,52.9359448,-1.2029359,,,0,,,0
3390UN46,,"Derby Hall",,52.9420457,-1.2024666,,,0,,,0
3390U4,,"City, Upper Parliament St U4",,52.954451,-1.154277,,,0,,,0
3390MA47,,"Maurice Drive",,52.9804851,-1.1342569,,,0,,,0
3390MA48,,"Maurice Drive",,52.9805653,-1.134166,,,0,,,0
3390MA60,,"Gordon Rise",,52.9806637,-1.136562,,,0,,,0
3390SA01,,"St Ann's, Kildare Road terminus",,52.9704332,-1.1242574,,,0,,,0
3390SA02,,"Brewsters Road",,52.9689814,-1.1248675,,,0,,,0
3390SA03,,"Botany Avenue",,52.9673181,-1.1272835,,,0,,,0
3390SA04,,"St Ann's Well Rd, Ransom Road",,52.9646933,-1.1309991,,,0,,,0
3390SA05,,"Luther Close",,52.9636021,-1.1329863,,,0,,,0
3390SA06,,"St Ann's Well Rd, Robin Hd Chase",,52.9613328,-1.1373939,,,0,,,0
3390SA07,,"Hedderley Walk",,52.9589251,-1.1413422,,,0,,,0
3390SA08,,"Curzon Street",,52.9570445,-1.1423471,,,0,,,0
3390SA09,,"Curzon Street",,52.9572431,-1.1424622,,,0,,,0
3390SA10,,"Hedderley Walk",,52.9596695,-1.1411041,,,0,,,0
3390SA11,,"St Ann's Well Rd, Robin Hd Chase",,52.961805,-1.1368187,,,0,,,0
3390SA12,,"Luther Close",,52.9640911,-1.1322469,,,0,,,0
3390SA13,,"Ransom Road",,52.9649796,-1.1308147,,,0,,,0
3390SA14,,"Botany Avenue",,52.9670704,-1.1278394,,,0,,,0
3390SA15,,"Brewsters Road",,52.9680135,-1.1264952,,,0,,,0
3390SA36,,"St Ann's, Kildare Road",,52.970809,-1.1240115,,,0,,,0
3390SA37,,"Landmere Gardens",,52.9729684,-1.1242657,,,0,,,0
3390SA38,,"The Chestnuts",,52.9747397,-1.1255256,,,0,,,0
3390SA39,,"Boynton Drive",,52.9760071,-1.1267361,,,0,,,0
3390SA40,,"Elliott Durham Nature Area",,52.9776104,-1.1283868,,,0,,,0
3390SA42,,"The Wells Rd, Woodboro' Rd",,52.9797031,-1.1305788,,,0,,,0
3390SA43,,"The Wells Rd, Woodboro' Rd",,52.9797016,-1.1303703,,,0,,,0
3390SA44,,"Elliott Durham Nature Area",,52.9773823,-1.1279296,,,0,,,0
3390SA45,,"Boynton Drive",,52.9757698,-1.1262494,,,0,,,0
3390SA46,,"The Chestnuts",,52.9739158,-1.124738,,,0,,,0
3390SA47,,"St Ann's, Kildare Road",,52.970165,-1.12393,,,0,,,0
3390SA57,,"Landmere Gardens",,52.972696,-1.1238989,,,0,,,0
3390SH103,,"City Hospl, Main Entrance",,52.9915908,-1.1572614,,,0,,,0
3390SH105,,"Day Surgery Unit",,52.9898462,-1.16099,,,0,,,0
3390SH118,,"Hucknall Rd, City Hospital",,52.9885154,-1.1609413,,,0,,,0
3390SH120,,"Longmead Drive, Northwood Cres",,52.9955699,-1.1467094,,,0,,,0
3390SH122,,"South Road, Dundee House",,52.9898688,-1.152766,,,0,,,0
3390SH123,,"City Hospital, Purple Car Park",,52.991861,-1.153472,,,0,,,0
3390SH124,,"City Hospl, Radiotherapy",,52.991962,-1.1550939,,,0,,,0
3390SH125,,"Yellow Car Park",,52.9900714,-1.1510151,,,0,,,0
3390SH62,,"Alderton Road",,52.9954567,-1.1497214,,,0,,,0
3390SH64,,"Northwood Rd",,52.996939,-1.1458182,,,0,,,0
3390SH65,,"Northwood Cres, Longmead Drive",,52.9959028,-1.1442444,,,0,,,0
3390SH68,,"Rosecroft Drive",,52.9956462,-1.1485704,,,0,,,0
3390SH69,,"Archdale Road",,52.994965,-1.15137,,,0,,,0
3390SH69a,,"Archdale Road",,52.994922,-1.15118,,,0,,,0
3390SH71,,"Rosecroft Drive",,52.9957729,-1.1486871,,,0,,,0
3390SH77,,"Alderton Road",,52.9951196,-1.1503538,,,0,,,0
3390SH81,,"Sherwood Vale",,52.9809355,-1.1393419,,,0,,,0
3390SH82,,"Cavendish Vale",,52.980868,-1.1411902,,,0,,,0
3390SH83,,"Sherwood, Mansfield Street",,52.9818296,-1.1448949,,,0,,,0
3390SH84,,"Sherwood, Mansfield Street",,52.9816886,-1.1440338,,,0,,,0
3390SH85,,"Cavendish Vale",,52.981254,-1.1423592,,,0,,,0
3390SH86,,"Sherwood Vale",,52.981175,-1.1388903,,,0,,,0
3390SH87,,"Briarwood Court",,52.9822681,-1.1371556,,,0,,,0
3390SH96,,"Winwood Hts, Winchester Ct",,52.9827619,-1.1370564,,,0,,,0
3390SH98,,"City Hospl, South Entrance",,52.9888755,-1.1584614,,,0,,,0
3390SH99,,"Green Entrance",,52.9892217,-1.1553113,,,0,,,0
3390SA16,,"Gilpet Avenue",,52.9693878,-1.1263483,,,0,,,0
3390SA17,,"Gedney Avenue",,52.9712708,-1.126906,,,0,,,0
3390SA18,,"Brewsters Road Top",,52.9710009,-1.1281028,,,0,,,0
3390SA19,,"Blundell Close",,52.9687508,-1.130203,,,0,,,0
3390SA20,,"Ransom Road",,52.9681453,-1.1309894,,,0,,,0
3390SA21,,"Lotus Close",,52.9658072,-1.1333442,,,0,,,0
3390SA22,,"Abbotsford Drive",,52.9650327,-1.1381093,,,0,,,0
3390SA23,,"Abbotsford Dr, Robin Hood Chase",,52.9634034,-1.1415364,,,0,,,0
3390SA24,,"Penrhyn Close",,52.9611049,-1.1431749,,,0,,,0
3390SA26,,"Comyn Gardens",,52.9587026,-1.1428949,,,0,,,0
3390SA26a,,"Comyn Gardens",,52.958786,-1.142757,,,0,,,0
3390SA27,,"Penrhyn Close",,52.9613653,-1.14314,,,0,,,0
3390SA28,,"Abbotsford Dr, Robin Hood Chase",,52.9638689,-1.1412591,,,0,,,0
3390SA29,,"Abbotsford Drive",,52.9653302,-1.1382225,,,0,,,0
3390SA30,,"Lotus Close",,52.9653931,-1.1344989,,,0,,,0
3390SA31,,"Ransom Road",,52.9678403,-1.1310849,,,0,,,0
3390SA32,,"Blundell Close",,52.9692133,-1.1307446,,,0,,,0
3390SA33,,"Brewsters Road Top",,52.9710936,-1.1284881,,,0,,,0
3390SA34,,"Gedney Avenue",,52.9710283,-1.1269407,,,0,,,0
3390SA35,,"Gilpet Avenue",,52.969304,-1.125948,,,0,,,0
3390BT06,,"Boots, B Road",,52.9252827,-1.1896098,,,0,,,0
3390BT07,,"Boots, D90",,52.9266533,-1.1849578,,,0,,,0
3390BT10,,"Boots, Fifth Avenue",,52.9256324,-1.1855274,,,0,,,0
3390H8,,"City, George Street H8",,52.9550544,-1.1456167,,,0,,,0
3390LI09,,"Queens Drive P+R (in)",,52.9287039,-1.1656539,,,0,,,0
3390LI12,,"Queens Drive P+R (out)",,52.9287304,-1.1655939,,,0,,,0
3390LI38,,"Bull Close Road",,52.9279729,-1.1729723,,,0,,,0
3390LI39,,"Power League",,52.9262605,-1.1775272,,,0,,,0
3390LI40,,"Power League",,52.9263682,-1.1774955,,,0,,,0
3390LI41,,"Bull Close Road",,52.9279745,-1.1731955,,,0,,,0
3390ME15,,"Traffic Street",,52.9450397,-1.1493709,,,0,,,0
3390ME16,,"Wilford Road",,52.9444933,-1.1546797,,,0,,,0
3390ME17,,"Castle Bridge Road",,52.9433024,-1.1578876,,,0,,,0
3390ME18,,"NG2 Business Park",,52.9414666,-1.1601554,,,0,,,0
3390ME19,,"Crossgate Drive",,52.9384544,-1.1600649,,,0,,,0
3390ME36,,"Traffic Street",,52.9452052,-1.1498885,,,0,,,0
3390ME40,,"Wilford Road",,52.9446554,-1.1547211,,,0,,,0
3390ME45,,"Portal Business Park",,52.9439731,-1.1561185,,,0,,,0
3390ME55,,"Ainsworth Drive",,52.9394299,-1.1601332,,,0,,,0
3390ME68,,"NG2 Homebase",,52.942349,-1.160347,,,0,,,0
3390ME72,,"NG2 Business Park",,52.9415057,-1.1606011,,,0,,,0
3300RU0119,,"Ruddington La, Industrial Estate",,52.913651,-1.157466,,,0,,,0
3300RU0122,,"Ruddington La, Industrial Estate",,52.913631,-1.157229,,,0,,,0
3300RU0447,,"Ruddington, Clifton La, Nth Rd",,52.896229,-1.16159,,,0,,,0
3300RU0448,,"Ruddington, Clifton La, Nth Rd",,52.896278,-1.161479,,,0,,,0
3300RU0489,,"Wilford Road",,52.894914,-1.150888,,,0,,,0
3300RU0529,,"Camelot Street",,52.89541,-1.154803,,,0,,,0
3300RU0553,,"Grange Court",,52.905147,-1.152472,,,0,,,0
3300RU0565,,"Grange Court",,52.905511,-1.15303,,,0,,,0
3300RU0566,,"Paget Crescent",,52.89778,-1.150549,,,0,,,0
3300RU0567,,"Savages Road",,52.896844,-1.150493,,,0,,,0
3300RU0568,,"Clifton Road",,52.894901,-1.150219,,,0,,,0
3300RU0569,,"Savages Road",,52.89651,-1.150203,,,0,,,0
3300RU0570,,"Clifton Road",,52.894746,-1.149984,,,0,,,0
3300RU0571,,"Wilford Road",,52.894643,-1.150685,,,0,,,0
3300RU0594,,"Camelot Street",,52.8953,-1.154552,,,0,,,0
3300RU0888,,"Paget Crescent",,52.898105,-1.150781,,,0,,,0
3390CL43,,"Southchurch Drive",,52.909707,-1.167933,,,0,,,0
3390CL44,,"Farnborough School",,52.9086783,-1.1674663,,,0,,,0
3390CL45,,"Clifton Sports Centre",,52.9062019,-1.1668595,,,0,,,0
3390CL46,,"Farnboro' Rd, Central College",,52.9027412,-1.1669259,,,0,,,0
3390CL47,,"The Fairham",,52.900881,-1.168221,,,0,,,0
3390CL55,,"The Fairham",,52.900552,-1.168703,,,0,,,0
3390CL56,,"Farnboro' Rd, Central College",,52.9033254,-1.1668998,,,0,,,0
3390CL57,,"Clifton Sports Centre",,52.9064372,-1.1670929,,,0,,,0
3390CL58,,"Farnborough School",,52.9089498,-1.1677287,,,0,,,0
3390CL69,,"Green Lane, Dalehead Road",,52.906696,-1.186205,,,0,,,0
3390CL70,,"Langstrath Road",,52.904735,-1.183372,,,0,,,0
3390CL71,,"Whitegate Vale",,52.9032,-1.181156,,,0,,,0
3390CL73,,Morrisons,,52.9023238,-1.1792741,,,0,,,0
3390CL74,,"Whitegate Vale",,52.9033285,-1.1815745,,,0,,,0
3390CL75,,"Langstrath Road",,52.9046458,-1.1835718,,,0,,,0
3390CL76,,"Green Lane, Dalehead Road",,52.906399,-1.186151,,,0,,,0
3390SI03,,"Westerfield Way",,52.9164801,-1.165993,,,0,,,0
3390SI04,,"Silverdale, Monksway",,52.9149425,-1.1633902,,,0,,,0
3390SI05,,"The Hollows",,52.9154063,-1.1641397,,,0,,,0
3390SI06,,"Westerfield Way",,52.9168266,-1.1654063,,,0,,,0
3390SI07,,"Quinton Close",,52.9190708,-1.1649467,,,0,,,0
3390WI15,,"Roland Avenue",,52.9280411,-1.1596268,,,0,,,0
3390WI16,,"Holly Avenue",,52.9330736,-1.158101,,,0,,,0
3390WI17,,"Coronation Road",,52.9347579,-1.1560299,,,0,,,0
3390WI18,,"Vernon Avenue",,52.9333638,-1.1546585,,,0,,,0
3390WI19,,"Holly Avenue",,52.9323315,-1.1586808,,,0,,,0
3390WI20,,"Roland Avenue",,52.9292896,-1.1594687,,,0,,,0
3390WI22,,"Brierfield Avenue",,52.9158659,-1.1592081,,,0,,,0
3390WI23,,"Brierfield Avenue",,52.9162436,-1.1592157,,,0,,,0
3390WI24,,"Launceston Crescent",,52.9182256,-1.1598168,,,0,,,0
3390WI25,,"Launceston Crescent",,52.9186402,-1.1599724,,,0,,,0
3390WI26,,"St Austell Drive",,52.9205556,-1.1600543,,,0,,,0
3390WI27,,"St Austell Drive",,52.9206983,-1.159888,,,0,,,0
3390WI28,,"Twelve Houses",,52.9229562,-1.1600971,,,0,,,0
3390WI29,,"Twelve Houses",,52.9230811,-1.1599608,,,0,,,0
3390WI30,,"Ruddington Lane Top",,52.924584,-1.160106,,,0,,,0
3390WI31,,"Ruddington Lane Top",,52.924737,-1.160267,,,0,,,0
3300GE0220,,"Burton Joyce, Wheatsheaf Ct",,52.988219,-1.036406,,,0,,,0
3300GE0221,,"Lambley Lane",,52.98626,-1.039861,,,0,,,0
3300GE0222,,"Lambley Lane",,52.986528,-1.039617,,,0,,,0
3300GE0229,,"Carlton-le-Willows School, Turnround",,52.976043,-1.064001,,,0,,,0
3300GE0233,,"Nottingham Road",,52.978707,-1.057648,,,0,,,0
3300GE0234,,"Nottingham Road",,52.978917,-1.056958,,,0,,,0
3300GE0235,,"Woodside Road",,52.981552,-1.051449,,,0,,,0
3300GE0236,,"Woodside Road",,52.981566,-1.050958,,,0,,,0
3300GE0237,,"Cragmoor Road",,52.983431,-1.044735,,,0,,,0
3300GE0307,,"Chesterfield Drive",,52.990977,-1.032888,,,0,,,0
3300GE0317,,"Burton Joyce, Wheatsheaf Ct",,52.988379,-1.036209,,,0,,,0
3300GE0318,,"Chesterfield Drive",,52.99019,-1.033412,,,0,,,0
3300GE0319,,"Poplars Avenue",,52.993088,-1.02934,,,0,,,0
3300GE0638,,"Ash Close",,52.984318,-1.042078,,,0,,,0
3300GE0720,,"Poplars Avenue",,52.993006,-1.029282,,,0,,,0
3300NS0040,,"NTU Brackenhurst Campus",,53.0639883,-0.9651872,,,0,,,0
3300NS0113,,"NTU Brackenhurst Campus",,53.0644831,-0.965235,,,0,,,0
3300NS0131,,"Park Terrace",,53.074821,-0.957956,,,0,,,0
3300NS0155,,"Landseer Road",,53.075249,-0.964798,,,0,,,0
3300NS0162,,"Lowes Wong",,53.076339,-0.95686,,,0,,,0
3300NS0175,,Easthorpe,,53.077384,-0.942772,,,0,,,0
3300NS0186,,"The Ropewalk",,53.082856,-0.952716,,,0,,,0
3300NS0187,,"The Ropewalk",,53.083127,-0.953874,,,0,,,0
3300NS0188,,"Norwood Gardens Turning Circle",,53.08484,-0.957746,,,0,,,0
3300NS0201,,"Chimes Meadow",,53.078066,-0.942681,,,0,,,0
3300NS0254,,"Holy Trinity Church",,52.996392,-1.022352,,,0,,,0
3300NS0283,,"Church Street, Fiskerton Road",,53.075772,-0.945257,,,0,,,0
3300NS0298,,"Church Street, Farthingate",,53.076103,-0.948417,,,0,,,0
3300NS0304,,"Church Street, The Minster",,53.077621,-0.954396,,,0,,,0
3300NS0341,,"Nottingham Road for Halloughton",,53.059408,-0.968848,,,0,,,0
3300NS0417,,"Brakes Farm",,53.006248,-1.005378,,,0,,,0
3300NS0418,,"Brakes Farm",,53.005783,-1.005597,,,0,,,0
3300NS0419,,"Skithorne Rise",,53.004526,-1.007921,,,0,,,0
3300NS0420,,"Tall Trees",,52.99822,-1.018302,,,0,,,0
3300NS0421,,"Holy Trinity Church",,52.996266,-1.022251,,,0,,,0
3300NS0422,,"Nottingham Road",,52.994324,-1.025058,,,0,,,0
3300NS0426,,"Lowdham, War Memorial",,53.008751,-1.00146,,,0,,,0
3300NS0437,,"Old Main Road",,52.993768,-1.026762,,,0,,,0
3300NS0458,,"Thurgarton, Corner Croft",,53.0364573,-0.9646832,,,0,,,0
3300NS0495,,"Skithorne Rise",,53.004496,-1.007668,,,0,,,0
3300NS0496,,"Southwell, Hillside Drive",,53.074933,-0.961551,,,0,,,0
3300NS0497,,"The Dumbles",,53.07555,-0.967358,,,0,,,0
3300NS0498,,"Southwell, Vicarage Road",,53.077424,-0.96894,,,0,,,0
3300NS0500,,"Woodland View",,53.079551,-0.962702,,,0,,,0
3300NS0502,,Co-op,,53.08033,-0.956266,,,0,,,0
3300NS0503,,"Queen Street",,53.079095,-0.957405,,,0,,,0
3300NS0698,,"Nottingham Road",,52.994559,-1.024929,,,0,,,0
3300NS0743,,"Tall Trees",,52.998684,-1.017889,,,0,,,0
3300NS0749,,"Nottingham Road for Halloughton",,53.059221,-0.969062,,,0,,,0
3300NS0761,,"Park Terrace",,53.074786,-0.958077,,,0,,,0
3300NS0764,,"Station Road",,53.08119,-0.949278,,,0,,,0
3300NS0765,,"Meadow View",,53.079242,-0.945489,,,0,,,0
3300NS0769,,"Thurgarton, Corner Croft",,53.03664,-0.964771,,,0,,,0
3300NS0783,,"Lowdham, War Memorial",,53.008734,-1.001639,,,0,,,0
3300NS0844,,"Southwell, Minster School",,53.072456,-0.957909,,,0,,,0
3300NS0893,,"Gonalston Farm",,53.013247,-0.994127,,,0,,,0
3300NS0894,,"Gonalston Farm",,53.013596,-0.992956,,,0,,,0
3300NS0951,,"Southwell Leisure Centre",,53.072755,-0.959156,,,0,,,0
3300NS0952,,"Southwell Leisure Centre",,53.072805,-0.958722,,,0,,,0
3300NS0972,,"Thurgarton, Station Road",,53.029542,-0.969561,,,0,,,0
3300NS0973,,"Thurgarton, Station Road",,53.029551,-0.969785,,,0,,,0
3300NS1040,,"Thurgarton, Orchard View",,53.038628,-0.964154,,,0,,,0
3300NS1041,,"Thurgarton, Orchard View",,53.038674,-0.964302,,,0,,,0
3300NS1057,,"Gonalston Crossroads",,53.018505,-0.985868,,,0,,,0
3300NS1058,,"Gonalston Crossroads",,53.018457,-0.985754,,,0,,,0
3300GE0241,,"Westfields Lane",,53.024584,-1.07047,,,0,,,0
3300GE0242,,"Westfields Lane",,53.024658,-1.070781,,,0,,,0
3300GE0243,,"Church Meadow",,53.034404,-1.07782,,,0,,,0
3300GE0244,,"Church Meadow",,53.035264,-1.077518,,,0,,,0
3300GE0250,,"29 Main Street",,53.024087,-1.067886,,,0,,,0
3300GE0252,,"Park Avenue",,53.023647,-1.065659,,,0,,,0
3300GE0253,,"Paddock Close",,53.03799,-1.075461,,,0,,,0
3300GE0255,,"Orchard Drive",,53.0357919,-1.0748521,,,0,,,0
3300GE0257,,"St Wilfrid's Church",,53.036383,-1.081506,,,0,,,0
3300GE0276,,"25 Main Street",,53.024191,-1.06854,,,0,,,0
3300GE0281,,"Woodboro', St Swithun's Church",,53.023086,-1.060677,,,0,,,0
3300GE0282,,"69 Green Lane",,53.007868,-1.061916,,,0,,,0
3300GE0283,,"43 Green Lane",,53.005864,-1.062109,,,0,,,0
3300GE0284,,"42 Green Lane",,53.005639,-1.062084,,,0,,,0
3300GE0285,,"Lambley, The Dumbles",,53.003337,-1.061925,,,0,,,0
3300GE0286,,"Holy Trinity Church",,53.002777,-1.060492,,,0,,,0
3300GE0287,,"Holy Trinity Church",,53.002612,-1.060034,,,0,,,0
3300GE0289,,"Park Avenue",,53.023794,-1.06497,,,0,,,0
3300GE0300,,"Calverton, St Wilfrid's Square",,53.037325,-1.08247,,,0,,,0
3300GE0552,,"Robinson Road",,52.982923,-1.123484,,,0,,,0
3300GE0553,,"Mapperley, Steedman Avenue",,52.986151,-1.118607,,,0,,,0
3300GE0554,,"Newbury Close",,52.987866,-1.11592,,,0,,,0
3300GE0555,,"Newbury Close",,52.987633,-1.116029,,,0,,,0
3300GE0556,,"Mapperley, Steedman Avenue",,52.986459,-1.117766,,,0,,,0
3300GE0561,,"Podder Lane",,52.995694,-1.103632,,,0,,,0
3300GE0563,,"Podder Lane",,52.995836,-1.10342,,,0,,,0
3300GE0564,,"Plains Farm Close",,52.994335,-1.104533,,,0,,,0
3300GE0565,,"Plains Farm Close",,52.994327,-1.104301,,,0,,,0
3300GE0567,,"Mapperley Plains, Spring La",,52.99796,-1.102616,,,0,,,0
3300GE0568,,"Bailey Drive",,52.991622,-1.10966,,,0,,,0
3300GE0569,,"Bailey Drive",,52.9913527,-1.1097852,,,0,,,0
3300GE0570,,"Tree Tops",,52.9894828,-1.1133842,,,0,,,0
3300GE0571,,"Tree Tops",,52.99011,-1.111941,,,0,,,0
3300GE0667,,"Spring Lane Top",,52.99827,-1.101939,,,0,,,0
3300GE0668,,"Cheddington Avenue",,52.99682,-1.098021,,,0,,,0
3300GE0669,,"Spring La, Bradstone Dr",,52.99545,-1.093042,,,0,,,0
3300GE0670,,"Gedling Country Park",,52.994421,-1.084227,,,0,,,0
3300GE0671,,"Sunrise Farm",,52.99526,-1.069416,,,0,,,0
3300GE0672,,"Spring Lane End",,52.999182,-1.066351,,,0,,,0
3300GE0673,,"Lambley, Catfoot Lane",,53.000621,-1.065262,,,0,,,0
3300GE0674,,"Ross Lane",,53.00126,-1.0596456,,,0,,,0
3300GE0675,,"Lambley, The Dumbles",,53.003495,-1.062667,,,0,,,0
3300GE0676,,"Woodboro', Lingwood La, Church",,53.022858,-1.060249,,,0,,,0
3300GE0677,,"Ross Lane",,53.000931,-1.06013,,,0,,,0
3300GE0678,,"Lambley, Catfoot Lane",,53.000383,-1.065819,,,0,,,0
3300GE0679,,"Cromwell Crescent",,52.997995,-1.06514,,,0,,,0
3300GE0680,,"Sunrise Farm",,52.994752,-1.069949,,,0,,,0
3300GE0681,,"Lambley Lane",,52.993268,-1.073303,,,0,,,0
3300GE0682,,"Cheddington Avenue",,52.996527,-1.097371,,,0,,,0
3300GE0683,,"Gedling Country Park",,52.994321,-1.084021,,,0,,,0
3300GE0684,,"Spring Lane Cattery",,52.993677,-1.078596,,,0,,,0
3300GE0685,,"Spring Lane End",,52.998964,-1.065984,,,0,,,0
3300GE0695,,"Chapel Lane",,53.000681,-1.062549,,,0,,,0
3300GE0696,,"Chapel Lane",,53.0006,-1.06264,,,0,,,0
3300GE0750,,"66 Green Lane",,53.007803,-1.061769,,,0,,,0
3300GE0751,,"Cromwell Crescent",,52.997978,-1.06526,,,0,,,0
3300GE0752,,"Lambley Lane",,52.99342,-1.074417,,,0,,,0
3300GE0795,,"Oakland Grove",,53.038182,-1.078172,,,0,,,0
3300GE0823,,"Spring La, Bradstone Dr",,52.995387,-1.093149,,,0,,,0
3300GE0829,,"Foxwood Allotments",,53.02977,-1.077277,,,0,,,0
3300GE0830,,"Foxwood Allotments",,53.029804,-1.077113,,,0,,,0
3300GE0831,,"Lingwood Lane",,53.01484,-1.067221,,,0,,,0
3300GE0832,,"Lingwood Lane",,53.01483,-1.067057,,,0,,,0
3300GE0868,,"Spindle Lane",,53.032503,-1.077876,,,0,,,0
3300GE0869,,"Spindle Lane",,53.032621,-1.0779753,,,0,,,0
3390MA03,,"Huntingdon Street",,52.9599049,-1.1488261,,,0,,,0
3390MA04,,"Shelton St",,52.9615534,-1.1467838,,,0,,,0
3390MA05,,"Peas Hill Road",,52.962697,-1.1458084,,,0,,,0
3390MA06,,"Cranmer Street",,52.9652498,-1.1445074,,,0,,,0
3390MA07,,"Bowers Avenue",,52.9666927,-1.1438982,,,0,,,0
3390MA08,,"Woodboro'Rd, Hungerhill Road",,52.9684029,-1.1429412,,,0,,,0
3390MA09,,"Alexandra Court",,52.9705144,-1.1415444,,,0,,,0
3390MA10,,"Dagmar Grove",,52.9727584,-1.139832,,,0,,,0
3390MA11,,"Malvern Road",,52.9750235,-1.1373,,,0,,,0
3390MA12,,"Woodboro' Rd, Ransom Rd Top",,52.9777727,-1.1358452,,,0,,,0
3390MA13,,"Private Road",,52.9786374,-1.13483,,,0,,,0
3390MA14,,"Mapperley Rise",,52.9801485,-1.1324763,,,0,,,0
3390MA15,,"Belvoir Street",,52.9810504,-1.1291963,,,0,,,0
3390MA16,,"Porchester Road",,52.9814886,-1.1276533,,,0,,,0
3390MA17,,"Robinson Road",,52.9822409,-1.124823,,,0,,,0
3390MA19,,"Porchester Road",,52.9812494,-1.1281348,,,0,,,0
3390MA20,,"Belvoir Street",,52.9806788,-1.1300081,,,0,,,0
3390MA21,,"Mapperley Rise",,52.9794454,-1.1334585,,,0,,,0
3390MA22,,"Private Road",,52.9783244,-1.1350597,,,0,,,0
3390MA23,,"Woodboro' Rd, Ransom Rd Top",,52.9769013,-1.1359222,,,0,,,0
3390MA24,,"Malvern Road",,52.9744694,-1.1377578,,,0,,,0
3390MA25,,"Dagmar Grove",,52.9728727,-1.1394723,,,0,,,0
3390MA26,,"Alexandra Court",,52.9692962,-1.1421641,,,0,,,0
3390MA27,,"Woodboro'Rd, Hungerhill Road",,52.9673458,-1.1434535,,,0,,,0
3390MA28,,"Cranmer Street",,52.9654273,-1.1441912,,,0,,,0
3390MA29,,"Peas Hill Road",,52.9635632,-1.1450023,,,0,,,0
3390MA30,,"Shelton St",,52.9617844,-1.1464071,,,0,,,0
3390MA31,,"Huntingdon Street",,52.960552,-1.1475479,,,0,,,0
3390P1,,"City, Parliament St P1",,52.955114,-1.150171,,,0,,,0
3300GE0526,,"Holyoake Road",,52.981241,-1.10408,,,0,,,0
3300GE0527,,"Keyworth Road",,52.983217,-1.098989,,,0,,,0
3300GE0529,,"County Road",,52.982164,-1.097787,,,0,,,0
3300GE0530,,"Holyoake Road",,52.981003,-1.104681,,,0,,,0
3300GE0857,,"Chase Farm, Harviston Ave",,52.985408,-1.089752,,,0,,,0
3300GE0858,,"Chase Farm, Harviston Ave",,52.98541,-1.089627,,,0,,,0
3300GE0861,,"Wollaton Avenue",,52.981714,-1.09589,,,0,,,0
3300GE0862,,"County Road",,52.981946,-1.09731,,,0,,,0
3300GE0864,,"Keyworth Road",,52.9832694,-1.0996926,,,0,,,0
3390Q1,,"City, Queen Street Q1",,52.954394,-1.150036,,,0,,,0
3300RU0117,,Woodview,,52.914758,-1.108382,,,0,,,0
3300RU0124,,"Lings Bar Hospital",,52.923106,-1.101933,,,0,,,0
3300RU0135,,"Edwalton, Wellin La terminus",,52.912573,-1.111922,,,0,,,0
3300RU0136,,"Kingfishers Court",,52.916635,-1.108165,,,0,,,0
3300RU0137,,"Herons Court",,52.917153,-1.10521,,,0,,,0
3300RU0138,,"Rosthwaite Close",,52.917964,-1.102913,,,0,,,0
3300RU0146,,"Watendlath Close",,52.91914,-1.101763,,,0,,,0
3300RU0147,,"Yew Dale Close",,52.920665,-1.10249,,,0,,,0
3300RU0186,,Woodview,,52.914396,-1.108264,,,0,,,0
3300RU0214,,"Alford Rd, Spinney Close",,52.917234,-1.110116,,,0,,,0
3300RU0220,,"Leahurst Road",,52.921366,-1.11317,,,0,,,0
3300RU0221,,"Leahurst Road",,52.920967,-1.112732,,,0,,,0
3300RU0222,,"St Luke's Close",,52.9201814,-1.1122868,,,0,,,0
3300RU0223,,"Recreation Ground",,52.919038,-1.111281,,,0,,,0
3300RU0224,,"Alford Rd, Spinney Close",,52.917486,-1.110156,,,0,,,0
3300RU0228,,"Burleigh Road",,52.925146,-1.122345,,,0,,,0
3300RU0243,,"Trevor Road, Stamford Road",,52.923105,-1.121077,,,0,,,0
3300RU0245,,"Burleigh Road",,52.925012,-1.122422,,,0,,,0
3300RU0248,,"Test Match",,52.9296993,-1.1253178,,,0,,,0
3300RU0249,,"Test Match",,52.929457,-1.125442,,,0,,,0
3300RU0250,,"Ethel Road",,52.927891,-1.123852,,,0,,,0
3300RU0251,,"Ethel Road",,52.927781,-1.123646,,,0,,,0
3300RU0258,,"Buckfast Way, Bisham Drive",,52.928013,-1.111338,,,0,,,0
3300RU0259,,"Eltham Road",,52.929557,-1.112199,,,0,,,0
3300RU0260,,"Buckfast Way, Bisham Drive",,52.927765,-1.111727,,,0,,,0
3300RU0267,,"Buckfast Way, Turning Circle",,52.927662,-1.114346,,,0,,,0
3300RU0270,,"Mountsorrel Drive",,52.926798,-1.112345,,,0,,,0
3300RU0271,,"Mountsorrel Drive",,52.926734,-1.112168,,,0,,,0
3300RU0272,,"Nearsby Drive",,52.925127,-1.111234,,,0,,,0
3300RU0273,,"Covert Road",,52.923918,-1.113073,,,0,,,0
3300RU0284,,"Tudor Square",,52.93121,-1.124082,,,0,,,0
3300RU0286,,"Glenmore Road",,52.923559,-1.115565,,,0,,,0
3300RU0305,,"Nearsby Drive",,52.924884,-1.111179,,,0,,,0
3300RU0319,,"Glenmore Road",,52.92358,-1.115906,,,0,,,0
3300RU0320,,"Rodney Road",,52.9232891,-1.1179501,,,0,,,0
3300RU0321,,"Stamford Rd, Trevor Rd",,52.922982,-1.120158,,,0,,,0
3300RU0322,,"Rodney Road",,52.9230811,-1.1189955,,,0,,,0
3300RU0337,,"Covert Road",,52.92399,-1.113131,,,0,,,0
3300RU0380,,"Brockley Road",,52.930884,-1.112916,,,0,,,0
3300RU0382,,"Tudor Square",,52.931094,-1.125133,,,0,,,0
3300RU0384,,"Cyril Road",,52.931183,-1.118087,,,0,,,0
3300RU0385,,"Abbey Road",,52.931182,-1.120334,,,0,,,0
3300RU0386,,"Davies Road",,52.9312043,-1.1221632,,,0,,,0
3300RU0392,,"Davies Road",,52.9311104,-1.1216146,,,0,,,0
3300RU0404,,"Cyril Road",,52.931085,-1.116988,,,0,,,0
3300RU0405,,"Brockley Road",,52.931095,-1.113522,,,0,,,0
3300RU0600,,"Eltham Road",,52.930083,-1.112828,,,0,,,0
3300RU0713,,"Lings Bar Hospital",,52.922998,-1.101876,,,0,,,0
3300RU0714,,"Yew Dale Close",,52.920521,-1.102508,,,0,,,0
3300RU0715,,"Watendlath Close",,52.919187,-1.101925,,,0,,,0
3300RU0716,,"Rosthwaite Close",,52.918041,-1.102998,,,0,,,0
3300RU0717,,"Herons Court",,52.91719,-1.105402,,,0,,,0
3300RU0718,,"Kingfishers Court",,52.916579,-1.107869,,,0,,,0
3300RU0038,,"Machins Lane",,52.911997,-1.117897,,,0,,,0
3300RU0087,,"Machins Lane",,52.911493,-1.117803,,,0,,,0
3300RU0091,,"Baptist Church",,52.928244,-1.131581,,,0,,,0
3300RU0092,,"Melton Rd Shops",,52.926924,-1.12939,,,0,,,0
3300RU0202,,"Exeter Road",,52.924694,-1.126772,,,0,,,0
3300RU0203,,"Firs Road",,52.91493,-1.119339,,,0,,,0
3300RU0205,,"Valley Road",,52.91894,-1.121876,,,0,,,0
3300RU0206,,"Dovedale Road",,52.920734,-1.123714,,,0,,,0
3300RU0207,,"Dovedale Road",,52.921025,-1.124169,,,0,,,0
3300RU0208,,"Mellors Road",,52.922767,-1.125101,,,0,,,0
3300RU0210,,"Exeter Road",,52.924171,-1.12653,,,0,,,0
3300RU0212,,"Taunton Road",,52.92551,-1.127782,,,0,,,0
3300RU0213,,"Melton Rd Shops",,52.926204,-1.128345,,,0,,,0
3300RU0218,,"Mellors Road",,52.923012,-1.125527,,,0,,,0
3300RU0237,,"Firs Road",,52.915263,-1.119362,,,0,,,0
3300RU0603,,"Valley Road",,52.917416,-1.121193,,,0,,,0
3300RU0609,,"Hill Farm Court",,52.907958,-1.119957,,,0,,,0
3300RU0722,,"Hill Farm Court",,52.90793,-1.119734,,,0,,,0
3300RU0964,,"Rose Way, Lily Grove",,52.9072934,-1.1235799,,,0,,,0
3300RU0966,,"Jasmine Gardens",,52.9058285,-1.1236392,,,0,,,0
3300RU0967,,"Jasmine Gardens",,52.9059817,-1.1236807,,,0,,,0
3300GE0852,,Sainsburys,,52.958451,-1.07658,,,0,,,0
3300GE0853,,Sainsburys,,52.958272,-1.076236,,,0,,,0
3390C1,,"Collin St, Broadmarsh C1",,52.9497016,-1.150098,,,0,,,0
3390SN62,,"Pennyfoot Street",,52.9513039,-1.1366817,,,0,,,0
3390SN65,,"Lace Way",,52.9496412,-1.1379799,,,0,,,0
3390SN66,,"City Link (east)",,52.9495687,-1.1354214,,,0,,,0
